GameKey,SeasonType,Season,Week,Date,AwayTeam,HomeTeam,Channel,PointSpread,OverUnder,StadiumID,Canceled,GeoLat,GeoLong,ForecastTempLow,ForecastTempHigh,ForecastDescription,ForecastWindChill,ForecastWindSpeed,AwayTeamMoneyLine,HomeTeamMoneyLine,Day,DateTime,GlobalGameID,GlobalAwayTeamID,GlobalHomeTeamID,ScoreID,Status,IsClosed,DateTimeUTC,StadiumDetails
202410116,1,2024,1,2024-09-05T20:40:00,BAL,KC,NBC,-1.1,46.0,15.0,False,,,65.0,73.0,Light Rain,73.0,5,48.0,-56.0,2024-09-05T00:00:00,2024-09-05T20:40:00,18684,3,16,18684,Final,,2024-09-06T00:40:00,"{'StadiumID': 15, 'Name': 'Arrowhead Stadium', 'City': 'Kansas City', 'State': 'MO', 'Country': 'USA', 'Capacity': 76416, 'PlayingSurface': 'Grass', 'GeoLat': 39.048889, 'GeoLong': -94.483889, 'Type': 'Outdoor'}"
202410126,1,2024,1,2024-09-06T20:15:00,GB,PHI,PEA,-0.6,49.5,87.0,False,,,62.0,63.0,Broken Clouds,63.0,7,40.0,-48.0,2024-09-06T00:00:00,2024-09-06T20:15:00,18683,12,26,18683,Final,,2024-09-07T00:15:00,"{'StadiumID': 87, 'Name': 'Arena Corinthians', 'City': 'Sao Paulo', 'State': None, 'Country': 'Brazil', 'Capacity': 47252, 'PlayingSurface': 'Grass', 'GeoLat': -23.54525, 'GeoLong': -46.474278, 'Type': 'Outdoor'}"
202410102,1,2024,1,2024-09-08T13:00:00,PIT,ATL,FOX,-1.5,43.0,45.0,False,,,70.0,70.0,Clear Sky,70.0,7,64.0,-77.0,2024-09-08T00:00:00,2024-09-08T13:00:00,18675,28,2,18675,Final,,2024-09-08T17:00:00,"{'StadiumID': 45, 'Name': 'Mercedes-Benz Stadium', 'City': 'Atlanta', 'State': 'GA', 'Country': 'USA', 'Capacity': 71000, 'PlayingSurface': 'Artificial', 'GeoLat': 33.755556, 'GeoLong': -84.401, 'Type': 'RetractableDome'}"
202410104,1,2024,1,2024-09-08T13:00:00,ARI,BUF,CBS,-2.5,45.5,1.0,False,,,58.0,59.0,Scattered Clouds,58.0,12,93.0,-116.0,2024-09-08T00:00:00,2024-09-08T13:00:00,18676,1,4,18676,Final,,2024-09-08T17:00:00,"{'StadiumID': 1, 'Name': 'Highmark Stadium', 'City': 'Orchard Park', 'State': 'NY', 'Country': 'USA', 'Capacity': 71608, 'PlayingSurface': 'Artificial', 'GeoLat': 42.773758, 'GeoLong': -78.786837, 'Type': 'Outdoor'}"
202410106,1,2024,1,2024-09-08T13:00:00,TEN,CHI,FOX,-1.5,43.0,20.0,False,,,63.0,64.0,Scattered Clouds,64.0,8,63.0,-76.0,2024-09-08T00:00:00,2024-09-08T13:00:00,18677,34,6,18677,Final,,2024-09-08T17:00:00,"{'StadiumID': 20, 'Name': 'Soldier Field', 'City': 'Chicago', 'State': 'IL', 'Country': 'USA', 'Capacity': 61500, 'PlayingSurface': 'Grass', 'GeoLat': 41.86232, 'GeoLong': -87.616699, 'Type': 'Outdoor'}"
202410107,1,2024,1,2024-09-08T13:00:00,NE,CIN,CBS,-2.9,41.0,5.0,False,,,54.0,56.0,Clear Sky,54.0,2,118.0,-152.0,2024-09-08T00:00:00,2024-09-08T13:00:00,18678,21,7,18678,Final,,2024-09-08T17:00:00,"{'StadiumID': 5, 'Name': 'Paycor Stadium', 'City': 'Cincinnati', 'State': 'OH', 'Country': 'USA', 'Capacity': 65515, 'PlayingSurface': 'Artificial', 'GeoLat': 39.095309, 'GeoLong': -84.516003, 'Type': 'Outdoor'}"
202410114,1,2024,1,2024-09-08T13:00:00,HOU,IND,CBS,0.4,48.5,9.0,False,,,54.0,58.0,Clear Sky,54.0,2,-61.0,51.0,2024-09-08T00:00:00,2024-09-08T13:00:00,18679,13,14,18679,Final,,2024-09-08T17:00:00,"{'StadiumID': 9, 'Name': 'Lucas Oil Stadium', 'City': 'Indianapolis', 'State': 'IN', 'Country': 'USA', 'Capacity': 67000, 'PlayingSurface': 'Artificial', 'GeoLat': 39.760056, 'GeoLong': -86.163806, 'Type': 'RetractableDome'}"
202410119,1,2024,1,2024-09-08T13:00:00,JAX,MIA,CBS,-1.3,49.5,2.0,False,,,85.0,85.0,Clear Sky,85.0,10,59.0,-70.0,2024-09-08T00:00:00,2024-09-08T13:00:00,18680,15,19,18680,Final,,2024-09-08T17:00:00,"{'StadiumID': 2, 'Name': 'Hard Rock Stadium', 'City': 'Miami Gardens', 'State': 'FL', 'Country': 'USA', 'Capacity': 64767, 'PlayingSurface': 'Grass', 'GeoLat': 25.958056, 'GeoLong': -80.238889, 'Type': 'Outdoor'}"
202410122,1,2024,1,2024-09-08T13:00:00,CAR,NO,FOX,-1.3,41.5,27.0,False,,,75.0,78.0,Broken Clouds,78.0,10,61.0,-74.0,2024-09-08T00:00:00,2024-09-08T13:00:00,18681,5,22,18681,Final,,2024-09-08T17:00:00,"{'StadiumID': 27, 'Name': 'Caesars Superdome', 'City': 'New Orleans', 'State': 'LA', 'Country': 'USA', 'Capacity': 73208, 'PlayingSurface': 'Artificial', 'GeoLat': 29.950833, 'GeoLong': -90.081111, 'Type': 'Dome'}"
202410123,1,2024,1,2024-09-08T13:00:00,MIN,NYG,FOX,0.1,42.0,3.0,False,,,60.0,61.0,Clear Sky,60.0,7,-43.0,-41.0,2024-09-08T00:00:00,2024-09-08T13:00:00,18682,20,23,18682,Final,,2024-09-08T17:00:00,"{'StadiumID': 3, 'Name': 'MetLife Stadium', 'City': 'East Rutherford', 'State': 'NJ', 'Country': 'USA', 'Capacity': 82500, 'PlayingSurface': 'Artificial', 'GeoLat': 40.813528, 'GeoLong': -74.074361, 'Type': 'Outdoor'}"
202410129,1,2024,1,2024-09-08T16:05:00,LV,LAC,CBS,-1.1,40.5,54.0,False,,,83.0,83.0,Clear Sky,83.0,3,50.0,-59.0,2024-09-08T00:00:00,2024-09-08T16:05:00,18673,25,29,18673,Final,,2024-09-08T20:05:00,"{'StadiumID': 54, 'Name': 'SoFi Stadium', 'City': 'Inglewood', 'State': 'CA', 'Country': 'USA', 'Capacity': 70240, 'PlayingSurface': 'Artificial', 'GeoLat': 33.95345, 'GeoLong': -118.3392, 'Type': 'Dome'}"
202410130,1,2024,1,2024-09-08T16:05:00,DEN,SEA,CBS,-2.5,42.0,31.0,False,,,63.0,65.0,Few Clouds,65.0,5,88.0,-108.0,2024-09-08T00:00:00,2024-09-08T16:05:00,18674,10,30,18674,Final,,2024-09-08T20:05:00,"{'StadiumID': 31, 'Name': 'Lumen Field', 'City': 'Seattle', 'State': 'WA', 'Country': 'USA', 'Capacity': 68740, 'PlayingSurface': 'Artificial', 'GeoLat': 47.5952, 'GeoLong': -122.331625, 'Type': 'Outdoor'}"
202410108,1,2024,1,2024-09-08T16:25:00,DAL,CLE,FOX,-0.8,41.5,6.0,False,,,59.0,60.0,Few Clouds,59.0,7,42.0,-51.0,2024-09-08T00:00:00,2024-09-08T16:25:00,18671,9,8,18671,Final,,2024-09-08T20:25:00,"{'StadiumID': 6, 'Name': 'Huntington Bank Field', 'City': 'Cleveland', 'State': 'OH', 'Country': 'USA', 'Capacity': 67431, 'PlayingSurface': 'Grass', 'GeoLat': 41.506111, 'GeoLong': -81.699444, 'Type': 'Outdoor'}"
202410133,1,2024,1,2024-09-08T16:25:00,WAS,TB,FOX,-1.5,42.5,24.0,False,,,78.0,79.0,Light Rain,78.0,7,63.0,-76.0,2024-09-08T00:00:00,2024-09-08T16:25:00,18672,35,33,18672,Final,,2024-09-08T20:25:00,"{'StadiumID': 24, 'Name': 'Raymond James Stadium', 'City': 'Tampa Bay', 'State': 'FL', 'Country': 'USA', 'Capacity': 69218, 'PlayingSurface': 'Grass', 'GeoLat': 27.975833, 'GeoLong': -82.503333, 'Type': 'Outdoor'}"
202410111,1,2024,1,2024-09-08T20:20:00,LAR,DET,NBC,-2.1,53.5,21.0,False,,,59.0,61.0,Broken Clouds,61.0,5,77.0,-94.0,2024-09-08T00:00:00,2024-09-08T20:20:00,18670,32,11,18670,F/OT,,2024-09-09T00:20:00,"{'StadiumID': 21, 'Name': 'Ford Field', 'City': 'Detroit', 'State': 'MI', 'Country': 'USA', 'Capacity': 65000, 'PlayingSurface': 'Artificial', 'GeoLat': 42.340021, 'GeoLong': -83.045556, 'Type': 'Dome'}"
202410131,1,2024,1,2024-09-09T20:15:00,NYJ,SF,ABC,-1.3,43.5,37.0,False,,,63.0,64.0,Clear Sky,64.0,3,62.0,-75.0,2024-09-09T00:00:00,2024-09-09T20:15:00,18669,24,31,18669,Final,,2024-09-10T00:15:00,"{'StadiumID': 37, 'Name': ""Levi's Stadium"", 'City': 'Santa Clara', 'State': 'CA', 'Country': 'USA', 'Capacity': 68500, 'PlayingSurface': 'Grass', 'GeoLat': 37.403, 'GeoLong': -121.970274, 'Type': 'Outdoor'}"
202410219,1,2024,2,2024-09-12T20:15:00,BUF,MIA,AMZN,-1.0,49.0,2.0,False,,,84.0,86.0,Scattered Clouds,84.0,6,45.0,-53.0,2024-09-12T00:00:00,2024-09-12T20:15:00,18700,4,19,18700,Final,,2024-09-13T00:15:00,"{'StadiumID': 2, 'Name': 'Hard Rock Stadium', 'City': 'Miami Gardens', 'State': 'FL', 'Country': 'USA', 'Capacity': 64767, 'PlayingSurface': 'Grass', 'GeoLat': 25.958056, 'GeoLong': -80.238889, 'Type': 'Outdoor'}"
202410203,1,2024,2,2024-09-15T13:00:00,LV,BAL,CBS,-3.2,42.5,7.0,False,,,65.0,66.0,Broken Clouds,66.0,8,131.0,-172.0,2024-09-15T00:00:00,2024-09-15T13:00:00,18690,25,3,18690,Final,,2024-09-15T17:00:00,"{'StadiumID': 7, 'Name': 'M&T Bank Stadium', 'City': 'Baltimore', 'State': 'MD', 'Country': 'USA', 'Capacity': 71008, 'PlayingSurface': 'Grass', 'GeoLat': 39.278056, 'GeoLong': -76.622778, 'Type': 'Outdoor'}"
202410205,1,2024,2,2024-09-15T13:00:00,LAC,CAR,CBS,0.7,38.5,26.0,False,,,68.0,68.0,Broken Clouds,68.0,10,-82.0,68.0,2024-09-15T00:00:00,2024-09-15T13:00:00,18691,29,5,18691,Final,,2024-09-15T17:00:00,"{'StadiumID': 26, 'Name': 'Bank of America Stadium', 'City': 'Charlotte', 'State': 'NC', 'Country': 'USA', 'Capacity': 74867, 'PlayingSurface': 'Artificial', 'GeoLat': 35.225833, 'GeoLong': -80.852778, 'Type': 'Outdoor'}"
202410209,1,2024,2,2024-09-15T13:00:00,NO,DAL,FOX,-2.5,47.0,17.0,False,,,77.0,80.0,Clear Sky,80.0,8,89.0,-110.0,2024-09-15T00:00:00,2024-09-15T13:00:00,18692,22,9,18692,Final,,2024-09-15T17:00:00,"{'StadiumID': 17, 'Name': 'AT&T Stadium', 'City': 'Arlington', 'State': 'TX', 'Country': 'USA', 'Capacity': 80000, 'PlayingSurface': 'Artificial', 'GeoLat': 32.747778, 'GeoLong': -97.092778, 'Type': 'RetractableDome'}"
202410211,1,2024,2,2024-09-15T13:00:00,TB,DET,FOX,-2.9,52.0,21.0,False,,,68.0,69.0,Clear Sky,68.0,4,112.0,-143.0,2024-09-15T00:00:00,2024-09-15T13:00:00,18693,33,11,18693,Final,,2024-09-15T17:00:00,"{'StadiumID': 21, 'Name': 'Ford Field', 'City': 'Detroit', 'State': 'MI', 'Country': 'USA', 'Capacity': 65000, 'PlayingSurface': 'Artificial', 'GeoLat': 42.340021, 'GeoLong': -83.045556, 'Type': 'Dome'}"
202410212,1,2024,2,2024-09-15T13:00:00,IND,GB,FOX,0.4,41.5,22.0,False,,,66.0,66.0,Clear Sky,66.0,6,-53.0,45.0,2024-09-15T00:00:00,2024-09-15T13:00:00,18694,14,12,18694,Final,,2024-09-15T17:00:00,"{'StadiumID': 22, 'Name': 'Lambeau Field', 'City': 'Green Bay', 'State': 'WI', 'Country': 'USA', 'Capacity': 81441, 'PlayingSurface': 'Grass', 'GeoLat': 44.501389, 'GeoLong': -88.062222, 'Type': 'Outdoor'}"
202410215,1,2024,2,2024-09-15T13:00:00,CLE,JAX,CBS,-1.1,41.5,10.0,False,,,75.0,76.0,Light Rain,76.0,8,54.0,-65.0,2024-09-15T00:00:00,2024-09-15T13:00:00,18695,8,15,18695,Final,,2024-09-15T17:00:00,"{'StadiumID': 10, 'Name': 'EverBank Stadium', 'City': 'Jacksonville', 'State': 'FL', 'Country': 'USA', 'Capacity': 67814, 'PlayingSurface': 'Grass', 'GeoLat': 30.323889, 'GeoLong': -81.6375, 'Type': 'Outdoor'}"
202410220,1,2024,2,2024-09-15T13:00:00,SF,MIN,CBS,0.6,46.5,42.0,False,,,75.0,75.0,Light Rain,75.0,7,-81.0,67.0,2024-09-15T00:00:00,2024-09-15T13:00:00,18696,31,20,18696,Final,,2024-09-15T17:00:00,"{'StadiumID': 42, 'Name': 'U.S. Bank Stadium', 'City': 'Minneapolis', 'State': 'MN', 'Country': 'USA', 'Capacity': 66655, 'PlayingSurface': 'Artificial', 'GeoLat': 44.974288, 'GeoLong': -93.258, 'Type': 'Dome'}"
202410221,1,2024,2,2024-09-15T13:00:00,SEA,NE,FOX,0.4,39.0,4.0,False,,,52.0,53.0,Clear Sky,53.0,3,-64.0,53.0,2024-09-15T00:00:00,2024-09-15T13:00:00,18697,30,21,18697,F/OT,,2024-09-15T17:00:00,"{'StadiumID': 4, 'Name': 'Gillette Stadium', 'City': 'Foxborough', 'State': 'MA', 'Country': 'USA', 'Capacity': 64628, 'PlayingSurface': 'Artificial', 'GeoLat': 42.090866, 'GeoLong': -71.264244, 'Type': 'Outdoor'}"
202410234,1,2024,2,2024-09-15T13:00:00,NYJ,TEN,CBS,0.5,41.0,12.0,False,,,73.0,74.0,Broken Clouds,74.0,3,-74.0,61.0,2024-09-15T00:00:00,2024-09-15T13:00:00,18698,24,34,18698,Final,,2024-09-15T17:00:00,"{'StadiumID': 12, 'Name': 'Nissan Stadium', 'City': 'Nashville', 'State': 'TN', 'Country': 'USA', 'Capacity': 69143, 'PlayingSurface': 'Grass', 'GeoLat': 36.166389, 'GeoLong': -86.771389, 'Type': 'Outdoor'}"
202410235,1,2024,2,2024-09-15T13:00:00,NYG,WAS,FOX,-0.6,43.0,19.0,False,,,61.0,63.0,Scattered Clouds,63.0,5,39.0,-47.0,2024-09-15T00:00:00,2024-09-15T13:00:00,18699,23,35,18699,Final,,2024-09-15T17:00:00,"{'StadiumID': 19, 'Name': 'Northwest Stadium', 'City': 'Landover', 'State': 'MD', 'Country': 'USA', 'Capacity': 62000, 'PlayingSurface': 'Grass', 'GeoLat': 38.907778, 'GeoLong': -76.864444, 'Type': 'Outdoor'}"
202410201,1,2024,2,2024-09-15T16:05:00,LAR,ARI,FOX,0.0,47.5,29.0,False,,,87.0,89.0,Clear Sky,89.0,8,-42.0,-42.0,2024-09-15T00:00:00,2024-09-15T16:05:00,18689,32,1,18689,Final,,2024-09-15T20:05:00,"{'StadiumID': 29, 'Name': 'State Farm Stadium', 'City': 'Glendale', 'State': 'AZ', 'Country': 'USA', 'Capacity': 63400, 'PlayingSurface': 'Grass', 'GeoLat': 33.528, 'GeoLong': -112.263036, 'Type': 'RetractableDome'}"
202410210,1,2024,2,2024-09-15T16:25:00,PIT,DEN,CBS,0.4,36.5,13.0,False,,,66.0,70.0,Broken Clouds,66.0,4,-56.0,47.0,2024-09-15T00:00:00,2024-09-15T16:25:00,18687,28,10,18687,Final,,2024-09-15T20:25:00,"{'StadiumID': 13, 'Name': 'Empower Field at Mile High', 'City': 'Denver', 'State': 'CO', 'Country': 'USA', 'Capacity': 76125, 'PlayingSurface': 'Grass', 'GeoLat': 39.743889, 'GeoLong': -105.020097, 'Type': 'Outdoor'}"
202410216,1,2024,2,2024-09-15T16:25:00,CIN,KC,CBS,-2.5,47.5,15.0,False,,,70.0,74.0,Few Clouds,74.0,9,89.0,-110.0,2024-09-15T00:00:00,2024-09-15T16:25:00,18688,7,16,18688,Final,,2024-09-15T20:25:00,"{'StadiumID': 15, 'Name': 'Arrowhead Stadium', 'City': 'Kansas City', 'State': 'MO', 'Country': 'USA', 'Capacity': 76416, 'PlayingSurface': 'Grass', 'GeoLat': 39.048889, 'GeoLong': -94.483889, 'Type': 'Outdoor'}"
202410213,1,2024,2,2024-09-15T20:20:00,CHI,HOU,NBC,-2.5,45.5,11.0,False,,,80.0,82.0,Clear Sky,82.0,7,87.0,-107.0,2024-09-15T00:00:00,2024-09-15T20:20:00,18686,6,13,18686,Final,,2024-09-16T00:20:00,"{'StadiumID': 11, 'Name': 'NRG Stadium', 'City': 'Houston', 'State': 'TX', 'Country': 'USA', 'Capacity': 72220, 'PlayingSurface': 'Artificial', 'GeoLat': 29.684722, 'GeoLong': -95.410833, 'Type': 'RetractableDome'}"
202410226,1,2024,2,2024-09-16T20:15:00,ATL,PHI,ESPN,-2.1,46.5,18.0,False,,,66.0,67.0,Overcast Clouds,67.0,6,78.0,-94.0,2024-09-16T00:00:00,2024-09-16T20:15:00,18685,2,26,18685,Final,,2024-09-17T00:15:00,"{'StadiumID': 18, 'Name': 'Lincoln Financial Field', 'City': 'Philadelphia', 'State': 'PA', 'Country': 'USA', 'Capacity': 67594, 'PlayingSurface': 'Grass', 'GeoLat': 39.900833, 'GeoLong': -75.167469, 'Type': 'Outdoor'}"
202410324,1,2024,3,2024-09-19T20:15:00,NE,NYJ,AMZN,-2.5,39.0,3.0,False,,,70.0,71.0,Scattered Clouds,71.0,7,91.0,-112.0,2024-09-19T00:00:00,2024-09-19T20:15:00,18716,21,24,18716,Final,,2024-09-20T00:15:00,"{'StadiumID': 3, 'Name': 'MetLife Stadium', 'City': 'East Rutherford', 'State': 'NJ', 'Country': 'USA', 'Capacity': 82500, 'PlayingSurface': 'Artificial', 'GeoLat': 40.813528, 'GeoLong': -74.074361, 'Type': 'Outdoor'}"
202410308,1,2024,3,2024-09-22T13:00:00,NYG,CLE,FOX,-2.5,38.0,6.0,False,,,69.0,69.0,Light Rain,69.0,10,89.0,-112.0,2024-09-22T00:00:00,2024-09-22T13:00:00,18709,23,8,18709,Final,,2024-09-22T17:00:00,"{'StadiumID': 6, 'Name': 'Huntington Bank Field', 'City': 'Cleveland', 'State': 'OH', 'Country': 'USA', 'Capacity': 67431, 'PlayingSurface': 'Grass', 'GeoLat': 41.506111, 'GeoLong': -81.699444, 'Type': 'Outdoor'}"
202410314,1,2024,3,2024-09-22T13:00:00,CHI,IND,CBS,-0.8,43.5,9.0,False,,,67.0,68.0,Broken Clouds,68.0,5,42.0,-50.0,2024-09-22T00:00:00,2024-09-22T13:00:00,18710,6,14,18710,Final,,2024-09-22T17:00:00,"{'StadiumID': 9, 'Name': 'Lucas Oil Stadium', 'City': 'Indianapolis', 'State': 'IN', 'Country': 'USA', 'Capacity': 67000, 'PlayingSurface': 'Artificial', 'GeoLat': 39.760056, 'GeoLong': -86.163806, 'Type': 'RetractableDome'}"
202410320,1,2024,3,2024-09-22T13:00:00,HOU,MIN,CBS,0.2,46.5,42.0,False,,,54.0,57.0,Clear Sky,54.0,2,-48.0,40.0,2024-09-22T00:00:00,2024-09-22T13:00:00,18711,13,20,18711,Final,,2024-09-22T17:00:00,"{'StadiumID': 42, 'Name': 'U.S. Bank Stadium', 'City': 'Minneapolis', 'State': 'MN', 'Country': 'USA', 'Capacity': 66655, 'PlayingSurface': 'Artificial', 'GeoLat': 44.974288, 'GeoLong': -93.258, 'Type': 'Dome'}"
202410322,1,2024,3,2024-09-22T13:00:00,PHI,NO,FOX,-1.0,49.0,27.0,False,,,77.0,79.0,Clear Sky,79.0,4,46.0,-55.0,2024-09-22T00:00:00,2024-09-22T13:00:00,18712,26,22,18712,Final,,2024-09-22T17:00:00,"{'StadiumID': 27, 'Name': 'Caesars Superdome', 'City': 'New Orleans', 'State': 'LA', 'Country': 'USA', 'Capacity': 73208, 'PlayingSurface': 'Artificial', 'GeoLat': 29.950833, 'GeoLong': -90.081111, 'Type': 'Dome'}"
202410328,1,2024,3,2024-09-22T13:00:00,LAC,PIT,CBS,-1.0,36.0,8.0,False,,,70.0,72.0,Overcast Clouds,72.0,4,46.0,-54.0,2024-09-22T00:00:00,2024-09-22T13:00:00,18713,29,28,18713,Final,,2024-09-22T17:00:00,"{'StadiumID': 8, 'Name': 'Acrisure Stadium', 'City': 'Pittsburgh', 'State': 'PA', 'Country': 'USA', 'Capacity': 68400, 'PlayingSurface': 'Grass', 'GeoLat': 40.446667, 'GeoLong': -80.015833, 'Type': 'Outdoor'}"
202410333,1,2024,3,2024-09-22T13:00:00,DEN,TB,FOX,-2.3,40.5,24.0,False,,,79.0,79.0,Few Clouds,79.0,10,83.0,-102.0,2024-09-22T00:00:00,2024-09-22T13:00:00,18714,10,33,18714,Final,,2024-09-22T17:00:00,"{'StadiumID': 24, 'Name': 'Raymond James Stadium', 'City': 'Tampa Bay', 'State': 'FL', 'Country': 'USA', 'Capacity': 69218, 'PlayingSurface': 'Grass', 'GeoLat': 27.975833, 'GeoLong': -82.503333, 'Type': 'Outdoor'}"
202410334,1,2024,3,2024-09-22T13:00:00,GB,TEN,FOX,-1.1,37.0,12.0,False,,,75.0,75.0,Clear Sky,75.0,3,51.0,-62.0,2024-09-22T00:00:00,2024-09-22T13:00:00,18715,12,34,18715,Final,,2024-09-22T17:00:00,"{'StadiumID': 12, 'Name': 'Nissan Stadium', 'City': 'Nashville', 'State': 'TN', 'Country': 'USA', 'Capacity': 69143, 'PlayingSurface': 'Grass', 'GeoLat': 36.166389, 'GeoLong': -86.771389, 'Type': 'Outdoor'}"
202410325,1,2024,3,2024-09-22T16:05:00,CAR,LV,CBS,-2.1,40.0,53.0,False,,,81.0,83.0,Clear Sky,83.0,6,77.0,-94.0,2024-09-22T00:00:00,2024-09-22T16:05:00,18707,5,25,18707,Final,,2024-09-22T20:05:00,"{'StadiumID': 53, 'Name': 'Allegiant Stadium', 'City': 'Las Vegas', 'State': 'NV', 'Country': 'USA', 'Capacity': 65000, 'PlayingSurface': 'Grass', 'GeoLat': 36.090833, 'GeoLong': -115.183611, 'Type': 'Dome'}"
202410330,1,2024,3,2024-09-22T16:05:00,MIA,SEA,CBS,-1.5,41.5,31.0,False,,,59.0,62.0,Scattered Clouds,62.0,2,69.0,-83.0,2024-09-22T00:00:00,2024-09-22T16:05:00,18708,19,30,18708,Final,,2024-09-22T20:05:00,"{'StadiumID': 31, 'Name': 'Lumen Field', 'City': 'Seattle', 'State': 'WA', 'Country': 'USA', 'Capacity': 68740, 'PlayingSurface': 'Artificial', 'GeoLat': 47.5952, 'GeoLong': -122.331625, 'Type': 'Outdoor'}"
202410301,1,2024,3,2024-09-22T16:25:00,DET,ARI,FOX,0.4,51.5,29.0,False,,,86.0,87.0,Few Clouds,86.0,3,-58.0,48.0,2024-09-22T00:00:00,2024-09-22T16:25:00,18704,11,1,18704,Final,,2024-09-22T20:25:00,"{'StadiumID': 29, 'Name': 'State Farm Stadium', 'City': 'Glendale', 'State': 'AZ', 'Country': 'USA', 'Capacity': 63400, 'PlayingSurface': 'Grass', 'GeoLat': 33.528, 'GeoLong': -112.263036, 'Type': 'RetractableDome'}"
202410309,1,2024,3,2024-09-22T16:25:00,BAL,DAL,FOX,0.2,47.5,17.0,False,,,79.0,83.0,Broken Clouds,83.0,8,-46.0,38.0,2024-09-22T00:00:00,2024-09-22T16:25:00,18705,3,9,18705,Final,,2024-09-22T20:25:00,"{'StadiumID': 17, 'Name': 'AT&T Stadium', 'City': 'Arlington', 'State': 'TX', 'Country': 'USA', 'Capacity': 80000, 'PlayingSurface': 'Artificial', 'GeoLat': 32.747778, 'GeoLong': -97.092778, 'Type': 'RetractableDome'}"
202410332,1,2024,3,2024-09-22T16:25:00,SF,LAR,FOX,0.9,44.5,54.0,False,,,64.0,67.0,Broken Clouds,64.0,4,-106.0,86.0,2024-09-22T00:00:00,2024-09-22T16:25:00,18706,31,32,18706,Final,,2024-09-22T20:25:00,"{'StadiumID': 54, 'Name': 'SoFi Stadium', 'City': 'Inglewood', 'State': 'CA', 'Country': 'USA', 'Capacity': 70240, 'PlayingSurface': 'Artificial', 'GeoLat': 33.95345, 'GeoLong': -118.3392, 'Type': 'Dome'}"
202410302,1,2024,3,2024-09-22T20:20:00,KC,ATL,NBC,0.4,46.5,45.0,False,,,78.0,80.0,Scattered Clouds,78.0,3,-66.0,54.0,2024-09-22T00:00:00,2024-09-22T20:20:00,18703,16,2,18703,Final,,2024-09-23T00:20:00,"{'StadiumID': 45, 'Name': 'Mercedes-Benz Stadium', 'City': 'Atlanta', 'State': 'GA', 'Country': 'USA', 'Capacity': 71000, 'PlayingSurface': 'Artificial', 'GeoLat': 33.755556, 'GeoLong': -84.401, 'Type': 'RetractableDome'}"
202410304,1,2024,3,2024-09-23T19:30:00,JAX,BUF,ESPN,-1.5,46.5,1.0,False,,,63.0,63.0,Broken Clouds,63.0,8,70.0,-86.0,2024-09-23T00:00:00,2024-09-23T19:30:00,18702,15,4,18702,Final,,2024-09-23T23:30:00,"{'StadiumID': 1, 'Name': 'Highmark Stadium', 'City': 'Orchard Park', 'State': 'NY', 'Country': 'USA', 'Capacity': 71608, 'PlayingSurface': 'Artificial', 'GeoLat': 42.773758, 'GeoLong': -78.786837, 'Type': 'Outdoor'}"
202410307,1,2024,3,2024-09-23T20:15:00,WAS,CIN,ABC,-2.7,45.5,5.0,False,,,67.0,68.0,Light Rain,68.0,4,104.0,-131.0,2024-09-23T00:00:00,2024-09-23T20:15:00,18701,35,7,18701,Final,,2024-09-24T00:15:00,"{'StadiumID': 5, 'Name': 'Paycor Stadium', 'City': 'Cincinnati', 'State': 'OH', 'Country': 'USA', 'Capacity': 65515, 'PlayingSurface': 'Artificial', 'GeoLat': 39.095309, 'GeoLong': -84.516003, 'Type': 'Outdoor'}"
202410423,1,2024,4,2024-09-26T20:15:00,DAL,NYG,AMZN,0.8,45.0,3.0,False,,,70.0,71.0,Light Rain,71.0,2,-92.0,76.0,2024-09-26T00:00:00,2024-09-26T20:15:00,18732,9,23,18732,Final,,2024-09-27T00:15:00,"{'StadiumID': 3, 'Name': 'MetLife Stadium', 'City': 'East Rutherford', 'State': 'NJ', 'Country': 'USA', 'Capacity': 82500, 'PlayingSurface': 'Artificial', 'GeoLat': 40.813528, 'GeoLong': -74.074361, 'Type': 'Outdoor'}"
202410402,1,2024,4,2024-09-29T13:00:00,NO,ATL,FOX,-1.0,42.5,45.0,False,,,69.0,70.0,Broken Clouds,69.0,3,48.0,-56.0,2024-09-29T00:00:00,2024-09-29T13:00:00,18724,22,2,18724,Final,,2024-09-29T17:00:00,"{'StadiumID': 45, 'Name': 'Mercedes-Benz Stadium', 'City': 'Atlanta', 'State': 'GA', 'Country': 'USA', 'Capacity': 71000, 'PlayingSurface': 'Artificial', 'GeoLat': 33.755556, 'GeoLong': -84.401, 'Type': 'RetractableDome'}"
202410405,1,2024,4,2024-09-29T13:00:00,CIN,CAR,FOX,0.7,46.5,26.0,False,,,68.0,69.0,Clear Sky,69.0,2,-85.0,71.0,2024-09-29T00:00:00,2024-09-29T13:00:00,18725,7,5,18725,Final,,2024-09-29T17:00:00,"{'StadiumID': 26, 'Name': 'Bank of America Stadium', 'City': 'Charlotte', 'State': 'NC', 'Country': 'USA', 'Capacity': 74867, 'PlayingSurface': 'Artificial', 'GeoLat': 35.225833, 'GeoLong': -80.852778, 'Type': 'Outdoor'}"
202410406,1,2024,4,2024-09-29T13:00:00,LAR,CHI,FOX,-1.1,40.5,20.0,False,,,68.0,69.0,Overcast Clouds,69.0,7,54.0,-64.0,2024-09-29T00:00:00,2024-09-29T13:00:00,18726,32,6,18726,Final,,2024-09-29T17:00:00,"{'StadiumID': 20, 'Name': 'Soldier Field', 'City': 'Chicago', 'State': 'IL', 'Country': 'USA', 'Capacity': 61500, 'PlayingSurface': 'Grass', 'GeoLat': 41.86232, 'GeoLong': -87.616699, 'Type': 'Outdoor'}"
202410412,1,2024,4,2024-09-29T13:00:00,MIN,GB,CBS,-1.0,44.0,22.0,False,,,57.0,60.0,Clear Sky,60.0,8,46.0,-55.0,2024-09-29T00:00:00,2024-09-29T13:00:00,18727,20,12,18727,Final,,2024-09-29T17:00:00,"{'StadiumID': 22, 'Name': 'Lambeau Field', 'City': 'Green Bay', 'State': 'WI', 'Country': 'USA', 'Capacity': 81441, 'PlayingSurface': 'Grass', 'GeoLat': 44.501389, 'GeoLong': -88.062222, 'Type': 'Outdoor'}"
202410413,1,2024,4,2024-09-29T13:00:00,JAX,HOU,CBS,-2.1,44.5,11.0,False,,,78.0,78.0,Clear Sky,78.0,4,78.0,-96.0,2024-09-29T00:00:00,2024-09-29T13:00:00,18728,15,13,18728,Final,,2024-09-29T17:00:00,"{'StadiumID': 11, 'Name': 'NRG Stadium', 'City': 'Houston', 'State': 'TX', 'Country': 'USA', 'Capacity': 72220, 'PlayingSurface': 'Artificial', 'GeoLat': 29.684722, 'GeoLong': -95.410833, 'Type': 'RetractableDome'}"
202410414,1,2024,4,2024-09-29T13:00:00,PIT,IND,CBS,0.4,41.0,9.0,False,,,66.0,67.0,Overcast Clouds,67.0,7,-55.0,46.0,2024-09-29T00:00:00,2024-09-29T13:00:00,18729,28,14,18729,Final,,2024-09-29T17:00:00,"{'StadiumID': 9, 'Name': 'Lucas Oil Stadium', 'City': 'Indianapolis', 'State': 'IN', 'Country': 'USA', 'Capacity': 67000, 'PlayingSurface': 'Artificial', 'GeoLat': 39.760056, 'GeoLong': -86.163806, 'Type': 'RetractableDome'}"
202410424,1,2024,4,2024-09-29T13:00:00,DEN,NYJ,CBS,-3.0,39.5,3.0,False,,,62.0,62.0,Overcast Clouds,62.0,5,122.0,-154.0,2024-09-29T00:00:00,2024-09-29T13:00:00,18730,10,24,18730,Final,,2024-09-29T17:00:00,"{'StadiumID': 3, 'Name': 'MetLife Stadium', 'City': 'East Rutherford', 'State': 'NJ', 'Country': 'USA', 'Capacity': 82500, 'PlayingSurface': 'Artificial', 'GeoLat': 40.813528, 'GeoLong': -74.074361, 'Type': 'Outdoor'}"
202410433,1,2024,4,2024-09-29T13:00:00,PHI,TB,FOX,0.1,42.0,24.0,False,,,80.0,82.0,Light Rain,80.0,3,-45.0,-39.0,2024-09-29T00:00:00,2024-09-29T13:00:00,18731,26,33,18731,Final,,2024-09-29T17:00:00,"{'StadiumID': 24, 'Name': 'Raymond James Stadium', 'City': 'Tampa Bay', 'State': 'FL', 'Country': 'USA', 'Capacity': 69218, 'PlayingSurface': 'Grass', 'GeoLat': 27.975833, 'GeoLong': -82.503333, 'Type': 'Outdoor'}"
202410401,1,2024,4,2024-09-29T16:05:00,WAS,ARI,FOX,-1.3,48.5,29.0,False,,,94.0,94.0,Clear Sky,94.0,3,58.0,-69.0,2024-09-29T00:00:00,2024-09-29T16:05:00,18722,35,1,18722,Final,,2024-09-29T20:05:00,"{'StadiumID': 29, 'Name': 'State Farm Stadium', 'City': 'Glendale', 'State': 'AZ', 'Country': 'USA', 'Capacity': 63400, 'PlayingSurface': 'Grass', 'GeoLat': 33.528, 'GeoLong': -112.263036, 'Type': 'RetractableDome'}"
202410431,1,2024,4,2024-09-29T16:05:00,NE,SF,FOX,-4.0,42.0,37.0,False,,,65.0,65.0,Clear Sky,65.0,1,161.0,-218.0,2024-09-29T00:00:00,2024-09-29T16:05:00,18723,21,31,18723,Final,,2024-09-29T20:05:00,"{'StadiumID': 37, 'Name': ""Levi's Stadium"", 'City': 'Santa Clara', 'State': 'CA', 'Country': 'USA', 'Capacity': 68500, 'PlayingSurface': 'Grass', 'GeoLat': 37.403, 'GeoLong': -121.970274, 'Type': 'Outdoor'}"
202410429,1,2024,4,2024-09-29T16:25:00,KC,LAC,CBS,1.0,41.5,54.0,False,,,64.0,66.0,Clear Sky,64.0,3,-122.0,98.0,2024-09-29T00:00:00,2024-09-29T16:25:00,18720,16,29,18720,Final,,2024-09-29T20:25:00,"{'StadiumID': 54, 'Name': 'SoFi Stadium', 'City': 'Inglewood', 'State': 'CA', 'Country': 'USA', 'Capacity': 70240, 'PlayingSurface': 'Artificial', 'GeoLat': 33.95345, 'GeoLong': -118.3392, 'Type': 'Dome'}"
202410425,1,2024,4,2024-09-29T16:25:00,CLE,LV,CBS,0.4,37.0,53.0,False,,,86.0,89.0,Few Clouds,89.0,7,-57.0,47.0,2024-09-29T00:00:00,2024-09-29T16:25:00,18721,8,25,18721,Final,,2024-09-29T20:25:00,"{'StadiumID': 53, 'Name': 'Allegiant Stadium', 'City': 'Las Vegas', 'State': 'NV', 'Country': 'USA', 'Capacity': 65000, 'PlayingSurface': 'Grass', 'GeoLat': 36.090833, 'GeoLong': -115.183611, 'Type': 'Dome'}"
202410403,1,2024,4,2024-09-29T20:20:00,BUF,BAL,NBC,-1.0,47.5,7.0,False,,,65.0,65.0,Light Rain,65.0,9,46.0,-55.0,2024-09-29T00:00:00,2024-09-29T20:20:00,18719,4,3,18719,Final,,2024-09-30T00:20:00,"{'StadiumID': 7, 'Name': 'M&T Bank Stadium', 'City': 'Baltimore', 'State': 'MD', 'Country': 'USA', 'Capacity': 71008, 'PlayingSurface': 'Grass', 'GeoLat': 39.278056, 'GeoLong': -76.622778, 'Type': 'Outdoor'}"
202410419,1,2024,4,2024-09-30T19:30:00,TEN,MIA,ESPN,-1.0,37.5,2.0,False,,,83.0,85.0,Overcast Clouds,83.0,8,48.0,-58.0,2024-09-30T00:00:00,2024-09-30T19:30:00,18718,34,19,18718,Final,,2024-09-30T23:30:00,"{'StadiumID': 2, 'Name': 'Hard Rock Stadium', 'City': 'Miami Gardens', 'State': 'FL', 'Country': 'USA', 'Capacity': 64767, 'PlayingSurface': 'Grass', 'GeoLat': 25.958056, 'GeoLong': -80.238889, 'Type': 'Outdoor'}"
202410411,1,2024,4,2024-09-30T20:15:00,SEA,DET,ABC,-1.7,47.0,21.0,False,,,63.0,67.0,Few Clouds,63.0,1,70.0,-84.0,2024-09-30T00:00:00,2024-09-30T20:15:00,18717,30,11,18717,Final,,2024-10-01T00:15:00,"{'StadiumID': 21, 'Name': 'Ford Field', 'City': 'Detroit', 'State': 'MI', 'Country': 'USA', 'Capacity': 65000, 'PlayingSurface': 'Artificial', 'GeoLat': 42.340021, 'GeoLong': -83.045556, 'Type': 'Dome'}"
,1,2024,5,,BYE,DET,,,,,,,,,,,,1,,,,,0,0,11,0,,,,
,1,2024,5,,BYE,LAC,,,,,,,,,,,,1,,,,,0,0,29,0,,,,
,1,2024,5,,BYE,PHI,,,,,,,,,,,,1,,,,,0,0,26,0,,,,
,1,2024,5,,BYE,TEN,,,,,,,,,,,,1,,,,,0,0,34,0,,,,
202410502,1,2024,5,2024-10-03T20:15:00,TB,ATL,AMZN,-1.0,43.5,45.0,False,,,72.0,74.0,Broken Clouds,72.0,3,45.0,-54.0,2024-10-03T00:00:00,2024-10-03T20:15:00,18746,33,2,18746,F/OT,,2024-10-04T00:15:00,"{'StadiumID': 45, 'Name': 'Mercedes-Benz Stadium', 'City': 'Atlanta', 'State': 'GA', 'Country': 'USA', 'Capacity': 71000, 'PlayingSurface': 'Artificial', 'GeoLat': 33.755556, 'GeoLong': -84.401, 'Type': 'RetractableDome'}"
202410520,1,2024,5,2024-10-06T09:30:00,NYJ,MIN,NFLN,-1.0,42.0,47.0,False,,,55.0,55.0,Broken Clouds,55.0,8,45.0,-54.0,2024-10-06T00:00:00,2024-10-06T09:30:00,18745,24,20,18745,Final,,2024-10-06T13:30:00,"{'StadiumID': 47, 'Name': 'Tottenham Hotspur Stadium', 'City': 'London', 'State': None, 'Country': 'UK', 'Capacity': 62062, 'PlayingSurface': 'Artificial', 'GeoLat': 51.604444, 'GeoLong': -0.066389, 'Type': 'Outdoor'}"
202410506,1,2024,5,2024-10-06T13:00:00,CAR,CHI,FOX,-1.5,40.0,20.0,False,,,59.0,61.0,Clear Sky,61.0,12,63.0,-75.0,2024-10-06T00:00:00,2024-10-06T13:00:00,18739,5,6,18739,Final,,2024-10-06T17:00:00,"{'StadiumID': 20, 'Name': 'Soldier Field', 'City': 'Chicago', 'State': 'IL', 'Country': 'USA', 'Capacity': 61500, 'PlayingSurface': 'Grass', 'GeoLat': 41.86232, 'GeoLong': -87.616699, 'Type': 'Outdoor'}"
202410507,1,2024,5,2024-10-06T13:00:00,BAL,CIN,CBS,0.4,48.5,5.0,False,,,59.0,63.0,Clear Sky,63.0,6,-54.0,45.0,2024-10-06T00:00:00,2024-10-06T13:00:00,18740,3,7,18740,F/OT,,2024-10-06T17:00:00,"{'StadiumID': 5, 'Name': 'Paycor Stadium', 'City': 'Cincinnati', 'State': 'OH', 'Country': 'USA', 'Capacity': 65515, 'PlayingSurface': 'Artificial', 'GeoLat': 39.095309, 'GeoLong': -84.516003, 'Type': 'Outdoor'}"
202410513,1,2024,5,2024-10-06T13:00:00,BUF,HOU,CBS,-0.6,47.5,11.0,False,,,80.0,81.0,Clear Sky,81.0,6,39.0,-47.0,2024-10-06T00:00:00,2024-10-06T13:00:00,18741,4,13,18741,Final,,2024-10-06T17:00:00,"{'StadiumID': 11, 'Name': 'NRG Stadium', 'City': 'Houston', 'State': 'TX', 'Country': 'USA', 'Capacity': 72220, 'PlayingSurface': 'Artificial', 'GeoLat': 29.684722, 'GeoLong': -95.410833, 'Type': 'RetractableDome'}"
202410515,1,2024,5,2024-10-06T13:00:00,IND,JAX,CBS,-1.3,44.5,10.0,False,,,72.0,72.0,Light Rain,72.0,3,62.0,-75.0,2024-10-06T00:00:00,2024-10-06T13:00:00,18742,14,15,18742,Final,,2024-10-06T17:00:00,"{'StadiumID': 10, 'Name': 'EverBank Stadium', 'City': 'Jacksonville', 'State': 'FL', 'Country': 'USA', 'Capacity': 67814, 'PlayingSurface': 'Grass', 'GeoLat': 30.323889, 'GeoLong': -81.6375, 'Type': 'Outdoor'}"
202410521,1,2024,5,2024-10-06T13:00:00,MIA,NE,FOX,0.3,37.0,4.0,False,,,49.0,49.0,Overcast Clouds,48.0,4,-50.0,42.0,2024-10-06T00:00:00,2024-10-06T13:00:00,18743,19,21,18743,Final,,2024-10-06T17:00:00,"{'StadiumID': 4, 'Name': 'Gillette Stadium', 'City': 'Foxborough', 'State': 'MA', 'Country': 'USA', 'Capacity': 64628, 'PlayingSurface': 'Artificial', 'GeoLat': 42.090866, 'GeoLong': -71.264244, 'Type': 'Outdoor'}"
202410535,1,2024,5,2024-10-06T13:00:00,CLE,WAS,FOX,-1.1,43.5,19.0,False,,,62.0,63.0,Clear Sky,62.0,7,50.0,-58.0,2024-10-06T00:00:00,2024-10-06T13:00:00,18744,8,35,18744,Final,,2024-10-06T17:00:00,"{'StadiumID': 19, 'Name': 'Northwest Stadium', 'City': 'Landover', 'State': 'MD', 'Country': 'USA', 'Capacity': 62000, 'PlayingSurface': 'Grass', 'GeoLat': 38.907778, 'GeoLong': -76.864444, 'Type': 'Outdoor'}"
202410510,1,2024,5,2024-10-06T16:05:00,LV,DEN,FOX,-1.1,36.5,13.0,False,,,66.0,68.0,Clear Sky,68.0,1,53.0,-62.0,2024-10-06T00:00:00,2024-10-06T16:05:00,18737,25,10,18737,Final,,2024-10-06T20:05:00,"{'StadiumID': 13, 'Name': 'Empower Field at Mile High', 'City': 'Denver', 'State': 'CO', 'Country': 'USA', 'Capacity': 76125, 'PlayingSurface': 'Grass', 'GeoLat': 39.743889, 'GeoLong': -105.020097, 'Type': 'Outdoor'}"
202410531,1,2024,5,2024-10-06T16:05:00,ARI,SF,FOX,-2.7,49.0,37.0,False,,,82.0,84.0,Few Clouds,84.0,0,107.0,-135.0,2024-10-06T00:00:00,2024-10-06T16:05:00,18738,1,31,18738,Final,,2024-10-06T20:05:00,"{'StadiumID': 37, 'Name': ""Levi's Stadium"", 'City': 'Santa Clara', 'State': 'CA', 'Country': 'USA', 'Capacity': 68500, 'PlayingSurface': 'Grass', 'GeoLat': 37.403, 'GeoLong': -121.970274, 'Type': 'Outdoor'}"
202410532,1,2024,5,2024-10-06T16:25:00,GB,LAR,CBS,0.4,49.5,54.0,False,,,68.0,68.0,Clear Sky,68.0,5,-59.0,50.0,2024-10-06T00:00:00,2024-10-06T16:25:00,18735,12,32,18735,Final,,2024-10-06T20:25:00,"{'StadiumID': 54, 'Name': 'SoFi Stadium', 'City': 'Inglewood', 'State': 'CA', 'Country': 'USA', 'Capacity': 70240, 'PlayingSurface': 'Artificial', 'GeoLat': 33.95345, 'GeoLong': -118.3392, 'Type': 'Dome'}"
202410530,1,2024,5,2024-10-06T16:25:00,NYG,SEA,CBS,-2.7,42.5,31.0,False,,,55.0,58.0,Clear Sky,58.0,2,98.0,-121.0,2024-10-06T00:00:00,2024-10-06T16:25:00,18736,23,30,18736,Final,,2024-10-06T20:25:00,"{'StadiumID': 31, 'Name': 'Lumen Field', 'City': 'Seattle', 'State': 'WA', 'Country': 'USA', 'Capacity': 68740, 'PlayingSurface': 'Artificial', 'GeoLat': 47.5952, 'GeoLong': -122.331625, 'Type': 'Outdoor'}"
202410528,1,2024,5,2024-10-06T21:45:00,DAL,PIT,NBC,-1.0,43.5,8.0,False,,,57.0,63.0,Broken Clouds,63.0,5,46.0,-54.0,2024-10-06T00:00:00,2024-10-06T21:45:00,18734,9,28,18734,Final,,2024-10-07T01:45:00,"{'StadiumID': 8, 'Name': 'Acrisure Stadium', 'City': 'Pittsburgh', 'State': 'PA', 'Country': 'USA', 'Capacity': 68400, 'PlayingSurface': 'Grass', 'GeoLat': 40.446667, 'GeoLong': -80.015833, 'Type': 'Outdoor'}"
202410516,1,2024,5,2024-10-07T20:15:00,NO,KC,ESPN,-1.9,43.0,15.0,False,,,54.0,54.0,Few Clouds,54.0,3,73.0,-87.0,2024-10-07T00:00:00,2024-10-07T20:15:00,18733,22,16,18733,Final,,2024-10-08T00:15:00,"{'StadiumID': 15, 'Name': 'Arrowhead Stadium', 'City': 'Kansas City', 'State': 'MO', 'Country': 'USA', 'Capacity': 76416, 'PlayingSurface': 'Grass', 'GeoLat': 39.048889, 'GeoLong': -94.483889, 'Type': 'Outdoor'}"
,1,2024,6,,BYE,KC,,,,,,,,,,,,1,,,,,0,0,16,0,,,,
,1,2024,6,,BYE,LAR,,,,,,,,,,,,1,,,,,0,0,32,0,,,,
,1,2024,6,,BYE,MIA,,,,,,,,,,,,1,,,,,0,0,19,0,,,,
,1,2024,6,,BYE,MIN,,,,,,,,,,,,1,,,,,0,0,20,0,,,,
202410630,1,2024,6,2024-10-10T20:15:00,SF,SEA,AMZN,0.5,49.0,31.0,False,,,49.0,51.0,Overcast Clouds,51.0,6,-74.0,62.0,2024-10-10T00:00:00,2024-10-10T20:15:00,18760,31,30,18760,Final,,2024-10-11T00:15:00,"{'StadiumID': 31, 'Name': 'Lumen Field', 'City': 'Seattle', 'State': 'WA', 'Country': 'USA', 'Capacity': 68740, 'PlayingSurface': 'Artificial', 'GeoLat': 47.5952, 'GeoLong': -122.331625, 'Type': 'Outdoor'}"
202410606,1,2024,6,2024-10-13T09:30:00,JAX,CHI,NFLN,0.2,44.5,47.0,False,,,47.0,48.0,Moderate Rain,42.0,12,-47.0,40.0,2024-10-13T00:00:00,2024-10-13T09:30:00,18759,15,6,18759,Final,,2024-10-13T13:30:00,"{'StadiumID': 47, 'Name': 'Tottenham Hotspur Stadium', 'City': 'London', 'State': None, 'Country': 'UK', 'Capacity': 62062, 'PlayingSurface': 'Artificial', 'GeoLat': 51.604444, 'GeoLong': -0.066389, 'Type': 'Outdoor'}"
202410603,1,2024,6,2024-10-13T13:00:00,WAS,BAL,CBS,-2.7,50.5,7.0,False,,,69.0,70.0,Scattered Clouds,70.0,10,97.0,-120.0,2024-10-13T00:00:00,2024-10-13T13:00:00,18753,35,3,18753,Final,,2024-10-13T17:00:00,"{'StadiumID': 7, 'Name': 'M&T Bank Stadium', 'City': 'Baltimore', 'State': 'MD', 'Country': 'USA', 'Capacity': 71008, 'PlayingSurface': 'Grass', 'GeoLat': 39.278056, 'GeoLong': -76.622778, 'Type': 'Outdoor'}"
202410612,1,2024,6,2024-10-13T13:00:00,ARI,GB,FOX,-2.1,47.0,22.0,False,,,44.0,45.0,Light Rain,38.0,18,77.0,-94.0,2024-10-13T00:00:00,2024-10-13T13:00:00,18754,1,12,18754,Final,,2024-10-13T17:00:00,"{'StadiumID': 22, 'Name': 'Lambeau Field', 'City': 'Green Bay', 'State': 'WI', 'Country': 'USA', 'Capacity': 81441, 'PlayingSurface': 'Grass', 'GeoLat': 44.501389, 'GeoLong': -88.062222, 'Type': 'Outdoor'}"
202410621,1,2024,6,2024-10-13T13:00:00,HOU,NE,CBS,0.9,39.5,4.0,False,,,50.0,53.0,Light Rain,48.0,5,-112.0,91.0,2024-10-13T00:00:00,2024-10-13T13:00:00,18755,13,21,18755,Final,,2024-10-13T17:00:00,"{'StadiumID': 4, 'Name': 'Gillette Stadium', 'City': 'Foxborough', 'State': 'MA', 'Country': 'USA', 'Capacity': 64628, 'PlayingSurface': 'Artificial', 'GeoLat': 42.090866, 'GeoLong': -71.264244, 'Type': 'Outdoor'}"
202410622,1,2024,6,2024-10-13T13:00:00,TB,NO,FOX,0.5,42.5,27.0,False,,,69.0,71.0,Clear Sky,71.0,6,-69.0,58.0,2024-10-13T00:00:00,2024-10-13T13:00:00,18756,33,22,18756,Final,,2024-10-13T17:00:00,"{'StadiumID': 27, 'Name': 'Caesars Superdome', 'City': 'New Orleans', 'State': 'LA', 'Country': 'USA', 'Capacity': 73208, 'PlayingSurface': 'Artificial', 'GeoLat': 29.950833, 'GeoLong': -90.081111, 'Type': 'Dome'}"
202410626,1,2024,6,2024-10-13T13:00:00,CLE,PHI,FOX,-3.2,42.0,18.0,False,,,64.0,68.0,Light Rain,68.0,11,123.0,-156.0,2024-10-13T00:00:00,2024-10-13T13:00:00,18757,8,26,18757,Final,,2024-10-13T17:00:00,"{'StadiumID': 18, 'Name': 'Lincoln Financial Field', 'City': 'Philadelphia', 'State': 'PA', 'Country': 'USA', 'Capacity': 67594, 'PlayingSurface': 'Grass', 'GeoLat': 39.900833, 'GeoLong': -75.167469, 'Type': 'Outdoor'}"
202410634,1,2024,6,2024-10-13T13:00:00,IND,TEN,CBS,-1.0,41.5,12.0,False,,,60.0,64.0,Clear Sky,64.0,9,44.0,-52.0,2024-10-13T00:00:00,2024-10-13T13:00:00,18758,14,34,18758,Final,,2024-10-13T17:00:00,"{'StadiumID': 12, 'Name': 'Nissan Stadium', 'City': 'Nashville', 'State': 'TN', 'Country': 'USA', 'Capacity': 69143, 'PlayingSurface': 'Grass', 'GeoLat': 36.166389, 'GeoLong': -86.771389, 'Type': 'Outdoor'}"
202410610,1,2024,6,2024-10-13T16:05:00,LAC,DEN,CBS,0.4,37.0,13.0,False,,,56.0,60.0,Few Clouds,56.0,6,-59.0,50.0,2024-10-13T00:00:00,2024-10-13T16:05:00,18751,29,10,18751,Final,,2024-10-13T20:05:00,"{'StadiumID': 13, 'Name': 'Empower Field at Mile High', 'City': 'Denver', 'State': 'CO', 'Country': 'USA', 'Capacity': 76125, 'PlayingSurface': 'Grass', 'GeoLat': 39.743889, 'GeoLong': -105.020097, 'Type': 'Outdoor'}"
202410625,1,2024,6,2024-10-13T16:05:00,PIT,LV,CBS,0.5,37.0,53.0,False,,,72.0,76.0,Clear Sky,76.0,6,-71.0,59.0,2024-10-13T00:00:00,2024-10-13T16:05:00,18752,28,25,18752,Final,,2024-10-13T20:05:00,"{'StadiumID': 53, 'Name': 'Allegiant Stadium', 'City': 'Las Vegas', 'State': 'NV', 'Country': 'USA', 'Capacity': 65000, 'PlayingSurface': 'Grass', 'GeoLat': 36.090833, 'GeoLong': -115.183611, 'Type': 'Dome'}"
202410605,1,2024,6,2024-10-13T16:25:00,ATL,CAR,FOX,0.9,46.0,26.0,False,,,67.0,67.0,Clear Sky,67.0,10,-99.0,82.0,2024-10-13T00:00:00,2024-10-13T16:25:00,18749,2,5,18749,Final,,2024-10-13T20:25:00,"{'StadiumID': 26, 'Name': 'Bank of America Stadium', 'City': 'Charlotte', 'State': 'NC', 'Country': 'USA', 'Capacity': 74867, 'PlayingSurface': 'Artificial', 'GeoLat': 35.225833, 'GeoLong': -80.852778, 'Type': 'Outdoor'}"
202410609,1,2024,6,2024-10-13T16:25:00,DET,DAL,FOX,0.5,53.5,17.0,False,,,78.0,81.0,Clear Sky,78.0,10,-74.0,62.0,2024-10-13T00:00:00,2024-10-13T16:25:00,18750,11,9,18750,Final,,2024-10-13T20:25:00,"{'StadiumID': 17, 'Name': 'AT&T Stadium', 'City': 'Arlington', 'State': 'TX', 'Country': 'USA', 'Capacity': 80000, 'PlayingSurface': 'Artificial', 'GeoLat': 32.747778, 'GeoLong': -97.092778, 'Type': 'RetractableDome'}"
202410623,1,2024,6,2024-10-13T20:20:00,CIN,NYG,NBC,0.7,46.0,3.0,False,,,64.0,66.0,Light Rain,64.0,8,-81.0,68.0,2024-10-13T00:00:00,2024-10-13T20:20:00,18748,7,23,18748,Final,,2024-10-14T00:20:00,"{'StadiumID': 3, 'Name': 'MetLife Stadium', 'City': 'East Rutherford', 'State': 'NJ', 'Country': 'USA', 'Capacity': 82500, 'PlayingSurface': 'Artificial', 'GeoLat': 40.813528, 'GeoLong': -74.074361, 'Type': 'Outdoor'}"
202410624,1,2024,6,2024-10-14T20:15:00,BUF,NYJ,ESPN,0.1,41.5,3.0,False,,,47.0,47.0,Clear Sky,42.0,10,-45.0,-39.0,2024-10-14T00:00:00,2024-10-14T20:15:00,18747,4,24,18747,Final,,2024-10-15T00:15:00,"{'StadiumID': 3, 'Name': 'MetLife Stadium', 'City': 'East Rutherford', 'State': 'NJ', 'Country': 'USA', 'Capacity': 82500, 'PlayingSurface': 'Artificial', 'GeoLat': 40.813528, 'GeoLong': -74.074361, 'Type': 'Outdoor'}"
,1,2024,7,,BYE,CHI,,,,,,,,,,,,1,,,,,0,0,6,0,,,,
,1,2024,7,,BYE,DAL,,,,,,,,,,,,1,,,,,0,0,9,0,,,,
202410722,1,2024,7,2024-10-17T20:15:00,DEN,NO,AMZN,0.4,37.0,27.0,False,,,57.0,59.0,Clear Sky,57.0,5,-56.0,48.0,2024-10-17T00:00:00,2024-10-17T20:15:00,18775,10,22,18775,Final,,2024-10-18T00:15:00,"{'StadiumID': 27, 'Name': 'Caesars Superdome', 'City': 'New Orleans', 'State': 'LA', 'Country': 'USA', 'Capacity': 73208, 'PlayingSurface': 'Artificial', 'GeoLat': 29.950833, 'GeoLong': -90.081111, 'Type': 'Dome'}"
202410715,1,2024,7,2024-10-20T09:30:00,NE,JAX,NFLN,-2.7,42.5,33.0,False,,,54.0,54.0,Overcast Clouds,54.0,9,101.0,-125.0,2024-10-20T00:00:00,2024-10-20T09:30:00,18774,21,15,18774,Final,,2024-10-20T13:30:00,"{'StadiumID': 33, 'Name': 'Wembley Stadium', 'City': 'London', 'State': None, 'Country': 'UK', 'Capacity': 86000, 'PlayingSurface': 'Grass', 'GeoLat': 51.555833, 'GeoLong': -0.279722, 'Type': 'RetractableDome'}"
202410702,1,2024,7,2024-10-20T13:00:00,SEA,ATL,FOX,-1.1,51.5,45.0,False,,,58.0,62.0,Clear Sky,58.0,3,53.0,-62.0,2024-10-20T00:00:00,2024-10-20T13:00:00,18767,30,2,18767,Final,,2024-10-20T17:00:00,"{'StadiumID': 45, 'Name': 'Mercedes-Benz Stadium', 'City': 'Atlanta', 'State': 'GA', 'Country': 'USA', 'Capacity': 71000, 'PlayingSurface': 'Artificial', 'GeoLat': 33.755556, 'GeoLong': -84.401, 'Type': 'RetractableDome'}"
202410704,1,2024,7,2024-10-20T13:00:00,TEN,BUF,CBS,-3.6,41.0,1.0,False,,,56.0,58.0,Few Clouds,58.0,10,142.0,-184.0,2024-10-20T00:00:00,2024-10-20T13:00:00,18768,34,4,18768,Final,,2024-10-20T17:00:00,"{'StadiumID': 1, 'Name': 'Highmark Stadium', 'City': 'Orchard Park', 'State': 'NY', 'Country': 'USA', 'Capacity': 71608, 'PlayingSurface': 'Artificial', 'GeoLat': 42.773758, 'GeoLong': -78.786837, 'Type': 'Outdoor'}"
202410708,1,2024,7,2024-10-20T13:00:00,CIN,CLE,CBS,0.8,42.5,6.0,False,,,58.0,59.0,Clear Sky,58.0,9,-91.0,75.0,2024-10-20T00:00:00,2024-10-20T13:00:00,18769,7,8,18769,Final,,2024-10-20T17:00:00,"{'StadiumID': 6, 'Name': 'Huntington Bank Field', 'City': 'Cleveland', 'State': 'OH', 'Country': 'USA', 'Capacity': 67431, 'PlayingSurface': 'Grass', 'GeoLat': 41.506111, 'GeoLong': -81.699444, 'Type': 'Outdoor'}"
202410712,1,2024,7,2024-10-20T13:00:00,HOU,GB,CBS,-1.1,47.5,22.0,False,,,67.0,68.0,Broken Clouds,68.0,15,57.0,-67.0,2024-10-20T00:00:00,2024-10-20T13:00:00,18770,13,12,18770,Final,,2024-10-20T17:00:00,"{'StadiumID': 22, 'Name': 'Lambeau Field', 'City': 'Green Bay', 'State': 'WI', 'Country': 'USA', 'Capacity': 81441, 'PlayingSurface': 'Grass', 'GeoLat': 44.501389, 'GeoLong': -88.062222, 'Type': 'Outdoor'}"
202410714,1,2024,7,2024-10-20T13:00:00,MIA,IND,FOX,-1.1,44.0,9.0,False,,,55.0,58.0,Clear Sky,55.0,4,48.0,-58.0,2024-10-20T00:00:00,2024-10-20T13:00:00,18771,19,14,18771,Final,,2024-10-20T17:00:00,"{'StadiumID': 9, 'Name': 'Lucas Oil Stadium', 'City': 'Indianapolis', 'State': 'IN', 'Country': 'USA', 'Capacity': 67000, 'PlayingSurface': 'Artificial', 'GeoLat': 39.760056, 'GeoLong': -86.163806, 'Type': 'RetractableDome'}"
202410720,1,2024,7,2024-10-20T13:00:00,DET,MIN,FOX,-0.6,50.0,42.0,False,,,69.0,70.0,Few Clouds,69.0,8,39.0,-46.0,2024-10-20T00:00:00,2024-10-20T13:00:00,18772,11,20,18772,Final,,2024-10-20T17:00:00,"{'StadiumID': 42, 'Name': 'U.S. Bank Stadium', 'City': 'Minneapolis', 'State': 'MN', 'Country': 'USA', 'Capacity': 66655, 'PlayingSurface': 'Artificial', 'GeoLat': 44.974288, 'GeoLong': -93.258, 'Type': 'Dome'}"
202410723,1,2024,7,2024-10-20T13:00:00,PHI,NYG,FOX,0.4,42.0,3.0,False,,,59.0,60.0,Clear Sky,59.0,4,-63.0,53.0,2024-10-20T00:00:00,2024-10-20T13:00:00,18773,26,23,18773,Final,,2024-10-20T17:00:00,"{'StadiumID': 3, 'Name': 'MetLife Stadium', 'City': 'East Rutherford', 'State': 'NJ', 'Country': 'USA', 'Capacity': 82500, 'PlayingSurface': 'Artificial', 'GeoLat': 40.813528, 'GeoLong': -74.074361, 'Type': 'Outdoor'}"
202410732,1,2024,7,2024-10-20T16:05:00,LV,LAR,CBS,-2.7,43.0,54.0,False,,,69.0,71.0,Clear Sky,69.0,1,106.0,-133.0,2024-10-20T00:00:00,2024-10-20T16:05:00,18765,25,32,18765,Final,,2024-10-20T20:05:00,"{'StadiumID': 54, 'Name': 'SoFi Stadium', 'City': 'Inglewood', 'State': 'CA', 'Country': 'USA', 'Capacity': 70240, 'PlayingSurface': 'Artificial', 'GeoLat': 33.95345, 'GeoLong': -118.3392, 'Type': 'Dome'}"
202410735,1,2024,7,2024-10-20T16:05:00,CAR,WAS,CBS,-3.8,51.0,19.0,False,,,54.0,55.0,Clear Sky,54.0,3,152.0,-199.0,2024-10-20T00:00:00,2024-10-20T16:05:00,18766,5,35,18766,Final,,2024-10-20T20:05:00,"{'StadiumID': 19, 'Name': 'Northwest Stadium', 'City': 'Landover', 'State': 'MD', 'Country': 'USA', 'Capacity': 62000, 'PlayingSurface': 'Grass', 'GeoLat': 38.907778, 'GeoLong': -76.864444, 'Type': 'Outdoor'}"
202410731,1,2024,7,2024-10-20T16:25:00,KC,SF,FOX,-1.0,47.5,37.0,False,,,64.0,66.0,Scattered Clouds,64.0,3,48.0,-55.0,2024-10-20T00:00:00,2024-10-20T16:25:00,18764,16,31,18764,Final,,2024-10-20T20:25:00,"{'StadiumID': 37, 'Name': ""Levi's Stadium"", 'City': 'Santa Clara', 'State': 'CA', 'Country': 'USA', 'Capacity': 68500, 'PlayingSurface': 'Grass', 'GeoLat': 37.403, 'GeoLong': -121.970274, 'Type': 'Outdoor'}"
202410728,1,2024,7,2024-10-20T20:20:00,NYJ,PIT,NBC,0.4,40.0,8.0,False,,,53.0,54.0,Clear Sky,53.0,2,-59.0,50.0,2024-10-20T00:00:00,2024-10-20T20:20:00,18763,24,28,18763,Final,,2024-10-21T00:20:00,"{'StadiumID': 8, 'Name': 'Acrisure Stadium', 'City': 'Pittsburgh', 'State': 'PA', 'Country': 'USA', 'Capacity': 68400, 'PlayingSurface': 'Grass', 'GeoLat': 40.446667, 'GeoLong': -80.015833, 'Type': 'Outdoor'}"
202410733,1,2024,7,2024-10-21T20:15:00,BAL,TB,ESPN,0.7,51.0,24.0,False,,,71.0,72.0,Scattered Clouds,72.0,11,-82.0,69.0,2024-10-21T00:00:00,2024-10-21T20:15:00,18762,3,33,18762,Final,,2024-10-22T00:15:00,"{'StadiumID': 24, 'Name': 'Raymond James Stadium', 'City': 'Tampa Bay', 'State': 'FL', 'Country': 'USA', 'Capacity': 69218, 'PlayingSurface': 'Grass', 'GeoLat': 27.975833, 'GeoLong': -82.503333, 'Type': 'Outdoor'}"
202410701,1,2024,7,2024-10-21T21:00:00,LAC,ARI,ESPN,0.1,44.5,29.0,False,,,73.0,77.0,Few Clouds,73.0,3,-45.0,38.0,2024-10-21T00:00:00,2024-10-21T21:00:00,18761,29,1,18761,Final,,2024-10-22T01:00:00,"{'StadiumID': 29, 'Name': 'State Farm Stadium', 'City': 'Glendale', 'State': 'AZ', 'Country': 'USA', 'Capacity': 63400, 'PlayingSurface': 'Grass', 'GeoLat': 33.528, 'GeoLong': -112.263036, 'Type': 'RetractableDome'}"
202410832,1,2024,8,2024-10-24T20:15:00,MIN,LAR,AMZN,0.4,47.5,54.0,False,,,64.0,67.0,Clear Sky,64.0,3,-56.0,48.0,2024-10-24T00:00:00,2024-10-24T20:15:00,18791,20,32,18791,Final,,2024-10-25T00:15:00,"{'StadiumID': 54, 'Name': 'SoFi Stadium', 'City': 'Inglewood', 'State': 'CA', 'Country': 'USA', 'Capacity': 70240, 'PlayingSurface': 'Artificial', 'GeoLat': 33.95345, 'GeoLong': -118.3392, 'Type': 'Dome'}"
202410807,1,2024,8,2024-10-27T13:00:00,PHI,CIN,CBS,-1.0,47.5,5.0,False,,,45.0,45.0,Clear Sky,45.0,3,49.0,-58.0,2024-10-27T00:00:00,2024-10-27T13:00:00,18778,26,7,18778,Final,,2024-10-27T17:00:00,"{'StadiumID': 5, 'Name': 'Paycor Stadium', 'City': 'Cincinnati', 'State': 'OH', 'Country': 'USA', 'Capacity': 65515, 'PlayingSurface': 'Artificial', 'GeoLat': 39.095309, 'GeoLong': -84.516003, 'Type': 'Outdoor'}"
202410808,1,2024,8,2024-10-27T13:00:00,BAL,CLE,CBS,1.0,44.5,6.0,False,,,45.0,49.0,Clear Sky,41.0,7,-128.0,105.0,2024-10-27T00:00:00,2024-10-27T13:00:00,18783,3,8,18783,Final,,2024-10-27T17:00:00,"{'StadiumID': 6, 'Name': 'Huntington Bank Field', 'City': 'Cleveland', 'State': 'OH', 'Country': 'USA', 'Capacity': 67431, 'PlayingSurface': 'Grass', 'GeoLat': 41.506111, 'GeoLong': -81.699444, 'Type': 'Outdoor'}"
202410811,1,2024,8,2024-10-27T13:00:00,TEN,DET,FOX,-4.8,45.0,21.0,False,,,48.0,49.0,Clear Sky,48.0,2,197.0,-275.0,2024-10-27T00:00:00,2024-10-27T13:00:00,18784,34,11,18784,Final,,2024-10-27T17:00:00,"{'StadiumID': 21, 'Name': 'Ford Field', 'City': 'Detroit', 'State': 'MI', 'Country': 'USA', 'Capacity': 65000, 'PlayingSurface': 'Artificial', 'GeoLat': 42.340021, 'GeoLong': -83.045556, 'Type': 'Dome'}"
202410813,1,2024,8,2024-10-27T13:00:00,IND,HOU,CBS,-1.9,45.0,11.0,False,,,72.0,72.0,Clear Sky,72.0,8,74.0,-89.0,2024-10-27T00:00:00,2024-10-27T13:00:00,18785,14,13,18785,Final,,2024-10-27T17:00:00,"{'StadiumID': 11, 'Name': 'NRG Stadium', 'City': 'Houston', 'State': 'TX', 'Country': 'USA', 'Capacity': 72220, 'PlayingSurface': 'Artificial', 'GeoLat': 29.684722, 'GeoLong': -95.410833, 'Type': 'RetractableDome'}"
202410815,1,2024,8,2024-10-27T13:00:00,GB,JAX,FOX,0.5,49.0,10.0,False,,,70.0,71.0,Scattered Clouds,70.0,6,-69.0,59.0,2024-10-27T00:00:00,2024-10-27T13:00:00,18786,12,15,18786,Final,,2024-10-27T17:00:00,"{'StadiumID': 10, 'Name': 'EverBank Stadium', 'City': 'Jacksonville', 'State': 'FL', 'Country': 'USA', 'Capacity': 67814, 'PlayingSurface': 'Grass', 'GeoLat': 30.323889, 'GeoLong': -81.6375, 'Type': 'Outdoor'}"
202410819,1,2024,8,2024-10-27T13:00:00,ARI,MIA,FOX,-1.7,46.5,2.0,False,,,76.0,77.0,Scattered Clouds,76.0,12,70.0,-84.0,2024-10-27T00:00:00,2024-10-27T13:00:00,18787,1,19,18787,Final,,2024-10-27T17:00:00,"{'StadiumID': 2, 'Name': 'Hard Rock Stadium', 'City': 'Miami Gardens', 'State': 'FL', 'Country': 'USA', 'Capacity': 64767, 'PlayingSurface': 'Grass', 'GeoLat': 25.958056, 'GeoLong': -80.238889, 'Type': 'Outdoor'}"
202410821,1,2024,8,2024-10-27T13:00:00,NYJ,NE,CBS,1.0,41.0,4.0,False,,,38.0,39.0,Broken Clouds,36.0,5,-129.0,103.0,2024-10-27T00:00:00,2024-10-27T13:00:00,18788,24,21,18788,Final,,2024-10-27T17:00:00,"{'StadiumID': 4, 'Name': 'Gillette Stadium', 'City': 'Foxborough', 'State': 'MA', 'Country': 'USA', 'Capacity': 64628, 'PlayingSurface': 'Artificial', 'GeoLat': 42.090866, 'GeoLong': -71.264244, 'Type': 'Outdoor'}"
202410833,1,2024,8,2024-10-27T13:00:00,ATL,TB,FOX,0.2,47.5,24.0,False,,,71.0,71.0,Broken Clouds,71.0,7,-47.0,40.0,2024-10-27T00:00:00,2024-10-27T13:00:00,18789,2,33,18789,Final,,2024-10-27T17:00:00,"{'StadiumID': 24, 'Name': 'Raymond James Stadium', 'City': 'Tampa Bay', 'State': 'FL', 'Country': 'USA', 'Capacity': 69218, 'PlayingSurface': 'Grass', 'GeoLat': 27.975833, 'GeoLong': -82.503333, 'Type': 'Outdoor'}"
202410829,1,2024,8,2024-10-27T16:05:00,NO,LAC,FOX,-2.9,41.5,54.0,False,,,65.0,67.0,Scattered Clouds,65.0,6,108.0,-134.0,2024-10-27T00:00:00,2024-10-27T16:05:00,18781,22,29,18781,Final,,2024-10-27T20:05:00,"{'StadiumID': 54, 'Name': 'SoFi Stadium', 'City': 'Inglewood', 'State': 'CA', 'Country': 'USA', 'Capacity': 70240, 'PlayingSurface': 'Artificial', 'GeoLat': 33.95345, 'GeoLong': -118.3392, 'Type': 'Dome'}"
202410830,1,2024,8,2024-10-27T16:05:00,BUF,SEA,FOX,0.4,45.0,31.0,False,,,50.0,50.0,Broken Clouds,50.0,11,-61.0,52.0,2024-10-27T00:00:00,2024-10-27T16:05:00,18782,4,30,18782,Final,,2024-10-27T20:05:00,"{'StadiumID': 31, 'Name': 'Lumen Field', 'City': 'Seattle', 'State': 'WA', 'Country': 'USA', 'Capacity': 68740, 'PlayingSurface': 'Artificial', 'GeoLat': 47.5952, 'GeoLong': -122.331625, 'Type': 'Outdoor'}"
202410810,1,2024,8,2024-10-27T16:25:00,CAR,DEN,CBS,-5.0,40.5,13.0,False,,,60.0,61.0,Overcast Clouds,60.0,6,202.0,-286.0,2024-10-27T00:00:00,2024-10-27T16:25:00,18779,5,10,18779,Final,,2024-10-27T20:25:00,"{'StadiumID': 13, 'Name': 'Empower Field at Mile High', 'City': 'Denver', 'State': 'CO', 'Country': 'USA', 'Capacity': 76125, 'PlayingSurface': 'Grass', 'GeoLat': 39.743889, 'GeoLong': -105.020097, 'Type': 'Outdoor'}"
202410825,1,2024,8,2024-10-27T16:25:00,KC,LV,CBS,1.2,43.0,53.0,False,,,72.0,75.0,Scattered Clouds,75.0,6,-165.0,130.0,2024-10-27T00:00:00,2024-10-27T16:25:00,18780,16,25,18780,Final,,2024-10-27T20:25:00,"{'StadiumID': 53, 'Name': 'Allegiant Stadium', 'City': 'Las Vegas', 'State': 'NV', 'Country': 'USA', 'Capacity': 65000, 'PlayingSurface': 'Grass', 'GeoLat': 36.090833, 'GeoLong': -115.183611, 'Type': 'Dome'}"
202410835,1,2024,8,2024-10-27T16:25:00,CHI,WAS,CBS,-0.6,46.5,19.0,False,,,43.0,43.0,Clear Sky,43.0,3,39.0,-46.0,2024-10-27T00:00:00,2024-10-27T16:25:00,18790,6,35,18790,Final,,2024-10-27T20:25:00,"{'StadiumID': 19, 'Name': 'Northwest Stadium', 'City': 'Landover', 'State': 'MD', 'Country': 'USA', 'Capacity': 62000, 'PlayingSurface': 'Grass', 'GeoLat': 38.907778, 'GeoLong': -76.864444, 'Type': 'Outdoor'}"
202410831,1,2024,8,2024-10-27T20:20:00,DAL,SF,NBC,-2.1,47.5,37.0,False,,,62.0,63.0,Light Rain,63.0,7,77.0,-92.0,2024-10-27T00:00:00,2024-10-27T20:20:00,18777,9,31,18777,Final,,2024-10-28T00:20:00,"{'StadiumID': 37, 'Name': ""Levi's Stadium"", 'City': 'Santa Clara', 'State': 'CA', 'Country': 'USA', 'Capacity': 68500, 'PlayingSurface': 'Grass', 'GeoLat': 37.403, 'GeoLong': -121.970274, 'Type': 'Outdoor'}"
202410828,1,2024,8,2024-10-28T20:15:00,NYG,PIT,ESPN,-2.3,37.5,8.0,False,,,51.0,52.0,Broken Clouds,51.0,4,85.0,-103.0,2024-10-28T00:00:00,2024-10-28T20:15:00,18776,23,28,18776,Final,,2024-10-29T00:15:00,"{'StadiumID': 8, 'Name': 'Acrisure Stadium', 'City': 'Pittsburgh', 'State': 'PA', 'Country': 'USA', 'Capacity': 68400, 'PlayingSurface': 'Grass', 'GeoLat': 40.446667, 'GeoLong': -80.015833, 'Type': 'Outdoor'}"
,1,2024,9,,BYE,PIT,,,,,,,,,,,,1,,,,,0,0,28,0,,,,
,1,2024,9,,BYE,SF,,,,,,,,,,,,1,,,,,0,0,31,0,,,,
202410924,1,2024,9,2024-10-31T20:15:00,HOU,NYJ,AMZN,-1.0,43.0,3.0,False,,,70.0,71.0,Scattered Clouds,71.0,11,49.0,-57.0,2024-10-31T00:00:00,2024-10-31T20:15:00,18806,13,24,18806,Final,,2024-11-01T00:15:00,"{'StadiumID': 3, 'Name': 'MetLife Stadium', 'City': 'East Rutherford', 'State': 'NJ', 'Country': 'USA', 'Capacity': 82500, 'PlayingSurface': 'Artificial', 'GeoLat': 40.813528, 'GeoLong': -74.074361, 'Type': 'Outdoor'}"
202410902,1,2024,9,2024-11-03T13:00:00,DAL,ATL,FOX,-1.1,52.0,45.0,False,,,59.0,61.0,Broken Clouds,59.0,11,56.0,-67.0,2024-11-03T00:00:00,2024-11-03T13:00:00,18797,9,2,18797,Final,,2024-11-03T18:00:00,"{'StadiumID': 45, 'Name': 'Mercedes-Benz Stadium', 'City': 'Atlanta', 'State': 'GA', 'Country': 'USA', 'Capacity': 71000, 'PlayingSurface': 'Artificial', 'GeoLat': 33.755556, 'GeoLong': -84.401, 'Type': 'RetractableDome'}"
202410903,1,2024,9,2024-11-03T13:00:00,DEN,BAL,CBS,-3.4,46.5,7.0,False,,,42.0,51.0,Few Clouds,38.0,6,131.0,-165.0,2024-11-03T00:00:00,2024-11-03T13:00:00,18798,10,3,18798,Final,,2024-11-03T18:00:00,"{'StadiumID': 7, 'Name': 'M&T Bank Stadium', 'City': 'Baltimore', 'State': 'MD', 'Country': 'USA', 'Capacity': 71008, 'PlayingSurface': 'Grass', 'GeoLat': 39.278056, 'GeoLong': -76.622778, 'Type': 'Outdoor'}"
202410904,1,2024,9,2024-11-03T13:00:00,MIA,BUF,CBS,-2.3,49.0,1.0,False,,,45.0,49.0,Broken Clouds,41.0,8,87.0,-106.0,2024-11-03T00:00:00,2024-11-03T13:00:00,18799,19,4,18799,Final,,2024-11-03T18:00:00,"{'StadiumID': 1, 'Name': 'Highmark Stadium', 'City': 'Orchard Park', 'State': 'NY', 'Country': 'USA', 'Capacity': 71608, 'PlayingSurface': 'Artificial', 'GeoLat': 42.773758, 'GeoLong': -78.786837, 'Type': 'Outdoor'}"
202410905,1,2024,9,2024-11-03T13:00:00,NO,CAR,CBS,1.0,43.5,26.0,False,,,56.0,59.0,Scattered Clouds,59.0,7,-129.0,104.0,2024-11-03T00:00:00,2024-11-03T13:00:00,18800,22,5,18800,Final,,2024-11-03T18:00:00,"{'StadiumID': 26, 'Name': 'Bank of America Stadium', 'City': 'Charlotte', 'State': 'NC', 'Country': 'USA', 'Capacity': 74867, 'PlayingSurface': 'Artificial', 'GeoLat': 35.225833, 'GeoLong': -80.852778, 'Type': 'Outdoor'}"
202410907,1,2024,9,2024-11-03T13:00:00,LV,CIN,FOX,-2.9,44.0,5.0,False,,,66.0,66.0,Broken Clouds,66.0,9,117.0,-146.0,2024-11-03T00:00:00,2024-11-03T13:00:00,18801,25,7,18801,Final,,2024-11-03T18:00:00,"{'StadiumID': 5, 'Name': 'Paycor Stadium', 'City': 'Cincinnati', 'State': 'OH', 'Country': 'USA', 'Capacity': 65515, 'PlayingSurface': 'Artificial', 'GeoLat': 39.095309, 'GeoLong': -84.516003, 'Type': 'Outdoor'}"
202410908,1,2024,9,2024-11-03T13:00:00,LAC,CLE,CBS,0.3,41.5,6.0,False,,,56.0,57.0,Clear Sky,57.0,17,-49.0,42.0,2024-11-03T00:00:00,2024-11-03T13:00:00,18802,29,8,18802,Final,,2024-11-03T18:00:00,"{'StadiumID': 6, 'Name': 'Huntington Bank Field', 'City': 'Cleveland', 'State': 'OH', 'Country': 'USA', 'Capacity': 67431, 'PlayingSurface': 'Grass', 'GeoLat': 41.506111, 'GeoLong': -81.699444, 'Type': 'Outdoor'}"
202410923,1,2024,9,2024-11-03T13:00:00,WAS,NYG,FOX,0.6,44.0,3.0,False,,,46.0,49.0,Clear Sky,44.0,4,-80.0,67.0,2024-11-03T00:00:00,2024-11-03T13:00:00,18804,35,23,18804,Final,,2024-11-03T18:00:00,"{'StadiumID': 3, 'Name': 'MetLife Stadium', 'City': 'East Rutherford', 'State': 'NJ', 'Country': 'USA', 'Capacity': 82500, 'PlayingSurface': 'Artificial', 'GeoLat': 40.813528, 'GeoLong': -74.074361, 'Type': 'Outdoor'}"
202410934,1,2024,9,2024-11-03T13:00:00,NE,TEN,FOX,-1.3,38.0,12.0,False,,,66.0,66.0,Clear Sky,66.0,12,56.0,-67.0,2024-11-03T00:00:00,2024-11-03T13:00:00,18805,21,34,18805,F/OT,,2024-11-03T18:00:00,"{'StadiumID': 12, 'Name': 'Nissan Stadium', 'City': 'Nashville', 'State': 'TN', 'Country': 'USA', 'Capacity': 69143, 'PlayingSurface': 'Grass', 'GeoLat': 36.166389, 'GeoLong': -86.771389, 'Type': 'Outdoor'}"
202410901,1,2024,9,2024-11-03T16:05:00,CHI,ARI,CBS,-0.6,44.5,29.0,False,,,57.0,62.0,Clear Sky,57.0,13,40.0,-48.0,2024-11-03T00:00:00,2024-11-03T16:05:00,18796,6,1,18796,Final,,2024-11-03T21:05:00,"{'StadiumID': 29, 'Name': 'State Farm Stadium', 'City': 'Glendale', 'State': 'AZ', 'Country': 'USA', 'Capacity': 63400, 'PlayingSurface': 'Grass', 'GeoLat': 33.528, 'GeoLong': -112.263036, 'Type': 'RetractableDome'}"
202410926,1,2024,9,2024-11-03T16:05:00,JAX,PHI,CBS,-2.9,46.0,18.0,False,,,45.0,48.0,Scattered Clouds,43.0,4,107.0,-134.0,2024-11-03T00:00:00,2024-11-03T16:05:00,18793,15,26,18793,Final,,2024-11-03T21:05:00,"{'StadiumID': 18, 'Name': 'Lincoln Financial Field', 'City': 'Philadelphia', 'State': 'PA', 'Country': 'USA', 'Capacity': 67594, 'PlayingSurface': 'Grass', 'GeoLat': 39.900833, 'GeoLong': -75.167469, 'Type': 'Outdoor'}"
202410912,1,2024,9,2024-11-03T16:25:00,DET,GB,FOX,0.4,48.5,22.0,False,,,54.0,59.0,Moderate Rain,54.0,15,-54.0,46.0,2024-11-03T00:00:00,2024-11-03T16:25:00,18794,11,12,18794,Final,,2024-11-03T21:25:00,"{'StadiumID': 22, 'Name': 'Lambeau Field', 'City': 'Green Bay', 'State': 'WI', 'Country': 'USA', 'Capacity': 81441, 'PlayingSurface': 'Grass', 'GeoLat': 44.501389, 'GeoLong': -88.062222, 'Type': 'Outdoor'}"
202410930,1,2024,9,2024-11-03T16:25:00,LAR,SEA,FOX,0.3,48.5,31.0,False,,,46.0,49.0,Overcast Clouds,48.0,4,-50.0,42.0,2024-11-03T00:00:00,2024-11-03T16:25:00,18795,32,30,18795,F/OT,,2024-11-03T21:25:00,"{'StadiumID': 31, 'Name': 'Lumen Field', 'City': 'Seattle', 'State': 'WA', 'Country': 'USA', 'Capacity': 68740, 'PlayingSurface': 'Artificial', 'GeoLat': 47.5952, 'GeoLong': -122.331625, 'Type': 'Outdoor'}"
202410920,1,2024,9,2024-11-03T20:20:00,IND,MIN,NBC,-2.1,47.0,42.0,False,,,49.0,49.0,Overcast Clouds,46.0,7,83.0,-101.0,2024-11-03T00:00:00,2024-11-03T20:20:00,18803,14,20,18803,Final,,2024-11-04T01:20:00,"{'StadiumID': 42, 'Name': 'U.S. Bank Stadium', 'City': 'Minneapolis', 'State': 'MN', 'Country': 'USA', 'Capacity': 66655, 'PlayingSurface': 'Artificial', 'GeoLat': 44.974288, 'GeoLong': -93.258, 'Type': 'Dome'}"
202410916,1,2024,9,2024-11-04T20:15:00,TB,KC,ESPN,-3.2,45.5,15.0,False,,,61.0,64.0,Light Rain,61.0,8,117.0,-147.0,2024-11-04T00:00:00,2024-11-04T20:15:00,18792,33,16,18792,F/OT,,2024-11-05T01:15:00,"{'StadiumID': 15, 'Name': 'Arrowhead Stadium', 'City': 'Kansas City', 'State': 'MO', 'Country': 'USA', 'Capacity': 76416, 'PlayingSurface': 'Grass', 'GeoLat': 39.048889, 'GeoLong': -94.483889, 'Type': 'Outdoor'}"
,1,2024,10,,BYE,CLE,,,,,,,,,,,,1,,,,,0,0,8,0,,,,
,1,2024,10,,BYE,GB,,,,,,,,,,,,1,,,,,0,0,12,0,,,,
,1,2024,10,,BYE,LV,,,,,,,,,,,,1,,,,,0,0,25,0,,,,
,1,2024,10,,BYE,SEA,,,,,,,,,,,,1,,,,,0,0,30,0,,,,
202411003,1,2024,10,2024-11-07T20:15:00,CIN,BAL,AMZN,-2.3,53.0,7.0,False,,,55.0,57.0,Scattered Clouds,55.0,6,85.0,-103.0,2024-11-07T00:00:00,2024-11-07T20:15:00,18820,7,3,18820,Final,,2024-11-08T01:15:00,"{'StadiumID': 7, 'Name': 'M&T Bank Stadium', 'City': 'Baltimore', 'State': 'MD', 'Country': 'USA', 'Capacity': 71008, 'PlayingSurface': 'Grass', 'GeoLat': 39.278056, 'GeoLong': -76.622778, 'Type': 'Outdoor'}"
202411005,1,2024,10,2024-11-10T09:30:00,NYG,CAR,NFLN,0.9,40.0,55.0,False,,,32.0,35.0,Overcast Clouds,32.0,4,-110.0,91.0,2024-11-10T00:00:00,2024-11-10T09:30:00,18819,23,5,18819,F/OT,,2024-11-10T14:30:00,"{'StadiumID': 55, 'Name': 'Allianz Arena', 'City': 'Munich', 'State': None, 'Country': 'Germany', 'Capacity': 75024, 'PlayingSurface': 'Grass', 'GeoLat': 48.218889, 'GeoLong': 11.624722, 'Type': 'Outdoor'}"
202411006,1,2024,10,2024-11-10T13:00:00,NE,CHI,FOX,-2.3,37.5,20.0,False,,,52.0,54.0,Broken Clouds,52.0,11,89.0,-109.0,2024-11-10T00:00:00,2024-11-10T13:00:00,18812,21,6,18812,Final,,2024-11-10T18:00:00,"{'StadiumID': 20, 'Name': 'Soldier Field', 'City': 'Chicago', 'State': 'IL', 'Country': 'USA', 'Capacity': 61500, 'PlayingSurface': 'Grass', 'GeoLat': 41.86232, 'GeoLong': -87.616699, 'Type': 'Outdoor'}"
202411014,1,2024,10,2024-11-10T13:00:00,BUF,IND,CBS,0.7,47.0,9.0,False,,,50.0,52.0,Clear Sky,47.0,6,-85.0,70.0,2024-11-10T00:00:00,2024-11-10T13:00:00,18813,4,14,18813,Final,,2024-11-10T18:00:00,"{'StadiumID': 9, 'Name': 'Lucas Oil Stadium', 'City': 'Indianapolis', 'State': 'IN', 'Country': 'USA', 'Capacity': 67000, 'PlayingSurface': 'Artificial', 'GeoLat': 39.760056, 'GeoLong': -86.163806, 'Type': 'RetractableDome'}"
202411015,1,2024,10,2024-11-10T13:00:00,MIN,JAX,FOX,1.0,42.5,10.0,False,,,72.0,73.0,Overcast Clouds,72.0,4,-125.0,101.0,2024-11-10T00:00:00,2024-11-10T13:00:00,18814,20,15,18814,Final,,2024-11-10T18:00:00,"{'StadiumID': 10, 'Name': 'EverBank Stadium', 'City': 'Jacksonville', 'State': 'FL', 'Country': 'USA', 'Capacity': 67814, 'PlayingSurface': 'Grass', 'GeoLat': 30.323889, 'GeoLong': -81.6375, 'Type': 'Outdoor'}"
202411016,1,2024,10,2024-11-10T13:00:00,DEN,KC,CBS,-2.7,42.5,15.0,False,,,46.0,49.0,Clear Sky,43.0,5,108.0,-135.0,2024-11-10T00:00:00,2024-11-10T13:00:00,18815,10,16,18815,Final,,2024-11-10T18:00:00,"{'StadiumID': 15, 'Name': 'Arrowhead Stadium', 'City': 'Kansas City', 'State': 'MO', 'Country': 'USA', 'Capacity': 76416, 'PlayingSurface': 'Grass', 'GeoLat': 39.048889, 'GeoLong': -94.483889, 'Type': 'Outdoor'}"
202411022,1,2024,10,2024-11-10T13:00:00,ATL,NO,FOX,0.5,47.0,27.0,False,,,72.0,73.0,Light Rain,73.0,9,-74.0,62.0,2024-11-10T00:00:00,2024-11-10T13:00:00,18816,2,22,18816,Final,,2024-11-10T18:00:00,"{'StadiumID': 27, 'Name': 'Caesars Superdome', 'City': 'New Orleans', 'State': 'LA', 'Country': 'USA', 'Capacity': 73208, 'PlayingSurface': 'Artificial', 'GeoLat': 29.950833, 'GeoLong': -90.081111, 'Type': 'Dome'}"
202411033,1,2024,10,2024-11-10T13:00:00,SF,TB,FOX,0.9,50.0,24.0,False,,,74.0,74.0,Few Clouds,74.0,12,-110.0,89.0,2024-11-10T00:00:00,2024-11-10T13:00:00,18817,31,33,18817,Final,,2024-11-10T18:00:00,"{'StadiumID': 24, 'Name': 'Raymond James Stadium', 'City': 'Tampa Bay', 'State': 'FL', 'Country': 'USA', 'Capacity': 69218, 'PlayingSurface': 'Grass', 'GeoLat': 27.975833, 'GeoLong': -82.503333, 'Type': 'Outdoor'}"
202411035,1,2024,10,2024-11-10T13:00:00,PIT,WAS,CBS,-0.6,45.5,19.0,False,,,56.0,60.0,Light Rain,56.0,14,40.0,-47.0,2024-11-10T00:00:00,2024-11-10T13:00:00,18818,28,35,18818,Final,,2024-11-10T18:00:00,"{'StadiumID': 19, 'Name': 'Northwest Stadium', 'City': 'Landover', 'State': 'MD', 'Country': 'USA', 'Capacity': 62000, 'PlayingSurface': 'Grass', 'GeoLat': 38.907778, 'GeoLong': -76.864444, 'Type': 'Outdoor'}"
202411029,1,2024,10,2024-11-10T16:05:00,TEN,LAC,FOX,-3.2,40.0,54.0,False,,,59.0,63.0,Clear Sky,59.0,3,122.0,-153.0,2024-11-10T00:00:00,2024-11-10T16:05:00,18811,34,29,18811,Final,,2024-11-10T21:05:00,"{'StadiumID': 54, 'Name': 'SoFi Stadium', 'City': 'Inglewood', 'State': 'CA', 'Country': 'USA', 'Capacity': 70240, 'PlayingSurface': 'Artificial', 'GeoLat': 33.95345, 'GeoLong': -118.3392, 'Type': 'Dome'}"
202411001,1,2024,10,2024-11-10T16:25:00,NYJ,ARI,CBS,0.3,46.0,29.0,False,,,63.0,68.0,Clear Sky,63.0,2,-50.0,42.0,2024-11-10T00:00:00,2024-11-10T16:25:00,18809,24,1,18809,Final,,2024-11-10T21:25:00,"{'StadiumID': 29, 'Name': 'State Farm Stadium', 'City': 'Glendale', 'State': 'AZ', 'Country': 'USA', 'Capacity': 63400, 'PlayingSurface': 'Grass', 'GeoLat': 33.528, 'GeoLong': -112.263036, 'Type': 'RetractableDome'}"
202411009,1,2024,10,2024-11-10T16:25:00,PHI,DAL,CBS,1.0,44.5,17.0,False,,,61.0,67.0,Clear Sky,61.0,4,-125.0,102.0,2024-11-10T00:00:00,2024-11-10T16:25:00,18810,26,9,18810,Final,,2024-11-10T21:25:00,"{'StadiumID': 17, 'Name': 'AT&T Stadium', 'City': 'Arlington', 'State': 'TX', 'Country': 'USA', 'Capacity': 80000, 'PlayingSurface': 'Artificial', 'GeoLat': 32.747778, 'GeoLong': -97.092778, 'Type': 'RetractableDome'}"
202411013,1,2024,10,2024-11-10T20:20:00,DET,HOU,NBC,0.6,49.0,11.0,False,,,70.0,74.0,Clear Sky,70.0,6,-84.0,70.0,2024-11-10T00:00:00,2024-11-10T20:20:00,18808,11,13,18808,Final,,2024-11-11T01:20:00,"{'StadiumID': 11, 'Name': 'NRG Stadium', 'City': 'Houston', 'State': 'TX', 'Country': 'USA', 'Capacity': 72220, 'PlayingSurface': 'Artificial', 'GeoLat': 29.684722, 'GeoLong': -95.410833, 'Type': 'RetractableDome'}"
202411032,1,2024,10,2024-11-11T20:15:00,MIA,LAR,ESPN,-0.8,49.5,54.0,False,,,59.0,61.0,Scattered Clouds,59.0,2,43.0,-51.0,2024-11-11T00:00:00,2024-11-11T20:15:00,18807,19,32,18807,Final,,2024-11-12T01:15:00,"{'StadiumID': 54, 'Name': 'SoFi Stadium', 'City': 'Inglewood', 'State': 'CA', 'Country': 'USA', 'Capacity': 70240, 'PlayingSurface': 'Artificial', 'GeoLat': 33.95345, 'GeoLong': -118.3392, 'Type': 'Dome'}"
,1,2024,11,,BYE,ARI,,,,,,,,,,,,1,,,,,0,0,1,0,,,,
,1,2024,11,,BYE,CAR,,,,,,,,,,,,1,,,,,0,0,5,0,,,,
,1,2024,11,,BYE,NYG,,,,,,,,,,,,1,,,,,0,0,23,0,,,,
,1,2024,11,,BYE,TB,,,,,,,,,,,,1,,,,,0,0,33,0,,,,
202411126,1,2024,11,2024-11-14T20:15:00,WAS,PHI,AMZN,-1.7,49.0,18.0,False,,,44.0,47.0,Overcast Clouds,40.0,6,71.0,-85.0,2024-11-14T00:00:00,2024-11-14T20:15:00,18834,35,26,18834,Final,,2024-11-15T01:15:00,"{'StadiumID': 18, 'Name': 'Lincoln Financial Field', 'City': 'Philadelphia', 'State': 'PA', 'Country': 'USA', 'Capacity': 67594, 'PlayingSurface': 'Grass', 'GeoLat': 39.900833, 'GeoLong': -75.167469, 'Type': 'Outdoor'}"
202411106,1,2024,11,2024-11-17T13:00:00,GB,CHI,FOX,0.9,41.0,20.0,False,,,53.0,55.0,Broken Clouds,55.0,3,-102.0,85.0,2024-11-17T00:00:00,2024-11-17T13:00:00,18827,12,6,18827,Final,,2024-11-17T18:00:00,"{'StadiumID': 20, 'Name': 'Soldier Field', 'City': 'Chicago', 'State': 'IL', 'Country': 'USA', 'Capacity': 61500, 'PlayingSurface': 'Grass', 'GeoLat': 41.86232, 'GeoLong': -87.616699, 'Type': 'Outdoor'}"
202411111,1,2024,11,2024-11-17T13:00:00,JAX,DET,CBS,-5.3,47.5,21.0,False,,,51.0,53.0,Overcast Clouds,53.0,4,238.0,-353.0,2024-11-17T00:00:00,2024-11-17T13:00:00,18828,15,11,18828,Final,,2024-11-17T18:00:00,"{'StadiumID': 21, 'Name': 'Ford Field', 'City': 'Detroit', 'State': 'MI', 'Country': 'USA', 'Capacity': 65000, 'PlayingSurface': 'Artificial', 'GeoLat': 42.340021, 'GeoLong': -83.045556, 'Type': 'Dome'}"
202411119,1,2024,11,2024-11-17T13:00:00,LV,MIA,CBS,-3.0,43.5,2.0,False,,,76.0,76.0,Overcast Clouds,76.0,10,120.0,-151.0,2024-11-17T00:00:00,2024-11-17T13:00:00,18829,25,19,18829,Final,,2024-11-17T18:00:00,"{'StadiumID': 2, 'Name': 'Hard Rock Stadium', 'City': 'Miami Gardens', 'State': 'FL', 'Country': 'USA', 'Capacity': 64767, 'PlayingSurface': 'Grass', 'GeoLat': 25.958056, 'GeoLong': -80.238889, 'Type': 'Outdoor'}"
202411121,1,2024,11,2024-11-17T13:00:00,LAR,NE,FOX,0.6,42.5,4.0,False,,,44.0,45.0,Overcast Clouds,43.0,3,-78.0,66.0,2024-11-17T00:00:00,2024-11-17T13:00:00,18830,32,21,18830,Final,,2024-11-17T18:00:00,"{'StadiumID': 4, 'Name': 'Gillette Stadium', 'City': 'Foxborough', 'State': 'MA', 'Country': 'USA', 'Capacity': 64628, 'PlayingSurface': 'Artificial', 'GeoLat': 42.090866, 'GeoLong': -71.264244, 'Type': 'Outdoor'}"
202411122,1,2024,11,2024-11-17T13:00:00,CLE,NO,FOX,0.1,44.0,27.0,False,,,68.0,71.0,Broken Clouds,71.0,7,-45.0,-39.0,2024-11-17T00:00:00,2024-11-17T13:00:00,18831,8,22,18831,Final,,2024-11-17T18:00:00,"{'StadiumID': 27, 'Name': 'Caesars Superdome', 'City': 'New Orleans', 'State': 'LA', 'Country': 'USA', 'Capacity': 73208, 'PlayingSurface': 'Artificial', 'GeoLat': 29.950833, 'GeoLong': -90.081111, 'Type': 'Dome'}"
202411124,1,2024,11,2024-11-17T13:00:00,IND,NYJ,CBS,-1.5,43.0,3.0,False,,,51.0,52.0,Clear Sky,51.0,5,67.0,-79.0,2024-11-17T00:00:00,2024-11-17T13:00:00,18822,14,24,18822,Final,,2024-11-17T18:00:00,"{'StadiumID': 3, 'Name': 'MetLife Stadium', 'City': 'East Rutherford', 'State': 'NJ', 'Country': 'USA', 'Capacity': 82500, 'PlayingSurface': 'Artificial', 'GeoLat': 40.813528, 'GeoLong': -74.074361, 'Type': 'Outdoor'}"
202411128,1,2024,11,2024-11-17T13:00:00,BAL,PIT,CBS,0.5,48.0,8.0,False,,,45.0,49.0,Clear Sky,42.0,5,-67.0,57.0,2024-11-17T00:00:00,2024-11-17T13:00:00,18832,3,28,18832,Final,,2024-11-17T18:00:00,"{'StadiumID': 8, 'Name': 'Acrisure Stadium', 'City': 'Pittsburgh', 'State': 'PA', 'Country': 'USA', 'Capacity': 68400, 'PlayingSurface': 'Grass', 'GeoLat': 40.446667, 'GeoLong': -80.015833, 'Type': 'Outdoor'}"
202411134,1,2024,11,2024-11-17T13:00:00,MIN,TEN,CBS,0.9,40.0,12.0,False,,,55.0,58.0,Few Clouds,55.0,3,-101.0,83.0,2024-11-17T00:00:00,2024-11-17T13:00:00,18833,20,34,18833,Final,,2024-11-17T18:00:00,"{'StadiumID': 12, 'Name': 'Nissan Stadium', 'City': 'Nashville', 'State': 'TN', 'Country': 'USA', 'Capacity': 69143, 'PlayingSurface': 'Grass', 'GeoLat': 36.166389, 'GeoLong': -86.771389, 'Type': 'Outdoor'}"
202411110,1,2024,11,2024-11-17T16:05:00,ATL,DEN,FOX,-0.8,44.5,13.0,False,,,37.0,42.0,Clear Sky,35.0,3,43.0,-50.0,2024-11-17T00:00:00,2024-11-17T16:05:00,18825,2,10,18825,Final,,2024-11-17T21:05:00,"{'StadiumID': 13, 'Name': 'Empower Field at Mile High', 'City': 'Denver', 'State': 'CO', 'Country': 'USA', 'Capacity': 76125, 'PlayingSurface': 'Grass', 'GeoLat': 39.743889, 'GeoLong': -105.020097, 'Type': 'Outdoor'}"
202411131,1,2024,11,2024-11-17T16:05:00,SEA,SF,FOX,-2.3,49.0,37.0,False,,,56.0,57.0,Overcast Clouds,57.0,9,84.0,-103.0,2024-11-17T00:00:00,2024-11-17T16:05:00,18826,30,31,18826,Final,,2024-11-17T21:05:00,"{'StadiumID': 37, 'Name': ""Levi's Stadium"", 'City': 'Santa Clara', 'State': 'CA', 'Country': 'USA', 'Capacity': 68500, 'PlayingSurface': 'Grass', 'GeoLat': 37.403, 'GeoLong': -121.970274, 'Type': 'Outdoor'}"
202411104,1,2024,11,2024-11-17T16:25:00,KC,BUF,CBS,-1.1,47.0,1.0,False,,,50.0,51.0,Overcast Clouds,51.0,13,48.0,-57.0,2024-11-17T00:00:00,2024-11-17T16:25:00,18823,16,4,18823,Final,,2024-11-17T21:25:00,"{'StadiumID': 1, 'Name': 'Highmark Stadium', 'City': 'Orchard Park', 'State': 'NY', 'Country': 'USA', 'Capacity': 71608, 'PlayingSurface': 'Artificial', 'GeoLat': 42.773758, 'GeoLong': -78.786837, 'Type': 'Outdoor'}"
202411129,1,2024,11,2024-11-17T20:20:00,CIN,LAC,NBC,-0.4,48.0,54.0,False,,,55.0,58.0,Clear Sky,55.0,5,-39.0,-44.0,2024-11-17T00:00:00,2024-11-17T20:20:00,18824,7,29,18824,Final,,2024-11-18T01:20:00,"{'StadiumID': 54, 'Name': 'SoFi Stadium', 'City': 'Inglewood', 'State': 'CA', 'Country': 'USA', 'Capacity': 70240, 'PlayingSurface': 'Artificial', 'GeoLat': 33.95345, 'GeoLong': -118.3392, 'Type': 'Dome'}"
202411109,1,2024,11,2024-11-18T20:15:00,HOU,DAL,ESPN,1.0,41.5,17.0,False,,,60.0,64.0,Clear Sky,60.0,9,-135.0,107.0,2024-11-18T00:00:00,2024-11-18T20:15:00,18821,13,9,18821,Final,,2024-11-19T01:15:00,"{'StadiumID': 17, 'Name': 'AT&T Stadium', 'City': 'Arlington', 'State': 'TX', 'Country': 'USA', 'Capacity': 80000, 'PlayingSurface': 'Artificial', 'GeoLat': 32.747778, 'GeoLong': -97.092778, 'Type': 'RetractableDome'}"
,1,2024,12,,BYE,ATL,,,,,,,,,,,,1,,,,,0,0,2,0,,,,
,1,2024,12,,BYE,BUF,,,,,,,,,,,,1,,,,,0,0,4,0,,,,
,1,2024,12,,BYE,CIN,,,,,,,,,,,,1,,,,,0,0,7,0,,,,
,1,2024,12,,BYE,JAX,,,,,,,,,,,,1,,,,,0,0,15,0,,,,
,1,2024,12,,BYE,NO,,,,,,,,,,,,1,,,,,0,0,22,0,,,,
,1,2024,12,,BYE,NYJ,,,,,,,,,,,,1,,,,,0,0,24,0,,,,
202411208,1,2024,12,2024-11-21T20:15:00,PIT,CLE,AMZN,0.5,36.5,6.0,False,,,31.0,40.0,Light Snow,22.0,12,-79.0,67.0,2024-11-21T00:00:00,2024-11-21T20:15:00,18847,28,8,18847,Final,,2024-11-22T01:15:00,"{'StadiumID': 6, 'Name': 'Huntington Bank Field', 'City': 'Cleveland', 'State': 'OH', 'Country': 'USA', 'Capacity': 67431, 'PlayingSurface': 'Grass', 'GeoLat': 41.506111, 'GeoLong': -81.699444, 'Type': 'Outdoor'}"
202411205,1,2024,12,2024-11-24T13:00:00,KC,CAR,CBS,1.6,43.0,26.0,False,,,46.0,50.0,Scattered Clouds,45.0,3,-251.0,182.0,2024-11-24T00:00:00,2024-11-24T13:00:00,18840,16,5,18840,Final,,2024-11-24T18:00:00,"{'StadiumID': 26, 'Name': 'Bank of America Stadium', 'City': 'Charlotte', 'State': 'NC', 'Country': 'USA', 'Capacity': 74867, 'PlayingSurface': 'Artificial', 'GeoLat': 35.225833, 'GeoLong': -80.852778, 'Type': 'Outdoor'}"
202411206,1,2024,12,2024-11-24T13:00:00,MIN,CHI,FOX,0.4,39.5,20.0,False,,,50.0,52.0,Overcast Clouds,52.0,8,-62.0,52.0,2024-11-24T00:00:00,2024-11-24T13:00:00,18841,20,6,18841,F/OT,,2024-11-24T18:00:00,"{'StadiumID': 20, 'Name': 'Soldier Field', 'City': 'Chicago', 'State': 'IL', 'Country': 'USA', 'Capacity': 61500, 'PlayingSurface': 'Grass', 'GeoLat': 41.86232, 'GeoLong': -87.616699, 'Type': 'Outdoor'}"
202411213,1,2024,12,2024-11-24T13:00:00,TEN,HOU,CBS,-3.0,40.5,11.0,False,,,69.0,70.0,Overcast Clouds,69.0,8,122.0,-155.0,2024-11-24T00:00:00,2024-11-24T13:00:00,18842,34,13,18842,Final,,2024-11-24T18:00:00,"{'StadiumID': 11, 'Name': 'NRG Stadium', 'City': 'Houston', 'State': 'TX', 'Country': 'USA', 'Capacity': 72220, 'PlayingSurface': 'Artificial', 'GeoLat': 29.684722, 'GeoLong': -95.410833, 'Type': 'RetractableDome'}"
202411214,1,2024,12,2024-11-24T13:00:00,DET,IND,FOX,1.0,50.5,9.0,False,,,49.0,51.0,Overcast Clouds,51.0,9,-135.0,109.0,2024-11-24T00:00:00,2024-11-24T13:00:00,18843,11,14,18843,Final,,2024-11-24T18:00:00,"{'StadiumID': 9, 'Name': 'Lucas Oil Stadium', 'City': 'Indianapolis', 'State': 'IN', 'Country': 'USA', 'Capacity': 67000, 'PlayingSurface': 'Artificial', 'GeoLat': 39.760056, 'GeoLong': -86.163806, 'Type': 'RetractableDome'}"
202411219,1,2024,12,2024-11-24T13:00:00,NE,MIA,CBS,-2.9,45.5,2.0,False,,,64.0,71.0,Clear Sky,64.0,5,116.0,-144.0,2024-11-24T00:00:00,2024-11-24T13:00:00,18844,21,19,18844,Final,,2024-11-24T18:00:00,"{'StadiumID': 2, 'Name': 'Hard Rock Stadium', 'City': 'Miami Gardens', 'State': 'FL', 'Country': 'USA', 'Capacity': 64767, 'PlayingSurface': 'Grass', 'GeoLat': 25.958056, 'GeoLong': -80.238889, 'Type': 'Outdoor'}"
202411223,1,2024,12,2024-11-24T13:00:00,TB,NYG,CBS,0.9,40.0,3.0,False,,,43.0,44.0,Clear Sky,39.0,9,-104.0,85.0,2024-11-24T00:00:00,2024-11-24T13:00:00,18845,33,23,18845,Final,,2024-11-24T18:00:00,"{'StadiumID': 3, 'Name': 'MetLife Stadium', 'City': 'East Rutherford', 'State': 'NJ', 'Country': 'USA', 'Capacity': 82500, 'PlayingSurface': 'Artificial', 'GeoLat': 40.813528, 'GeoLong': -74.074361, 'Type': 'Outdoor'}"
202411235,1,2024,12,2024-11-24T13:00:00,DAL,WAS,FOX,-4.0,44.5,19.0,False,,,41.0,43.0,Clear Sky,41.0,3,165.0,-223.0,2024-11-24T00:00:00,2024-11-24T13:00:00,18846,9,35,18846,Final,,2024-11-24T18:00:00,"{'StadiumID': 19, 'Name': 'Northwest Stadium', 'City': 'Landover', 'State': 'MD', 'Country': 'USA', 'Capacity': 62000, 'PlayingSurface': 'Grass', 'GeoLat': 38.907778, 'GeoLong': -76.864444, 'Type': 'Outdoor'}"
202411225,1,2024,12,2024-11-24T16:05:00,DEN,LV,CBS,0.8,41.5,53.0,False,,,48.0,53.0,Few Clouds,53.0,2,-93.0,78.0,2024-11-24T00:00:00,2024-11-24T16:05:00,18839,10,25,18839,Final,,2024-11-24T21:05:00,"{'StadiumID': 53, 'Name': 'Allegiant Stadium', 'City': 'Las Vegas', 'State': 'NV', 'Country': 'USA', 'Capacity': 65000, 'PlayingSurface': 'Grass', 'GeoLat': 36.090833, 'GeoLong': -115.183611, 'Type': 'Dome'}"
202411212,1,2024,12,2024-11-24T16:25:00,SF,GB,FOX,-2.5,44.5,22.0,False,,,40.0,42.0,Overcast Clouds,32.0,14,90.0,-109.0,2024-11-24T00:00:00,2024-11-24T16:25:00,18837,31,12,18837,Final,,2024-11-24T21:25:00,"{'StadiumID': 22, 'Name': 'Lambeau Field', 'City': 'Green Bay', 'State': 'WI', 'Country': 'USA', 'Capacity': 81441, 'PlayingSurface': 'Grass', 'GeoLat': 44.501389, 'GeoLong': -88.062222, 'Type': 'Outdoor'}"
202411230,1,2024,12,2024-11-24T16:25:00,ARI,SEA,FOX,0.1,46.5,31.0,False,,,43.0,45.0,Light Rain,45.0,1,-45.0,38.0,2024-11-24T00:00:00,2024-11-24T16:25:00,18838,1,30,18838,Final,,2024-11-24T21:25:00,"{'StadiumID': 31, 'Name': 'Lumen Field', 'City': 'Seattle', 'State': 'WA', 'Country': 'USA', 'Capacity': 68740, 'PlayingSurface': 'Artificial', 'GeoLat': 47.5952, 'GeoLong': -122.331625, 'Type': 'Outdoor'}"
202411232,1,2024,12,2024-11-24T20:20:00,PHI,LAR,NBC,0.4,48.5,54.0,False,,,55.0,57.0,Clear Sky,55.0,3,-61.0,53.0,2024-11-24T00:00:00,2024-11-24T20:20:00,18836,26,32,18836,Final,,2024-11-25T01:20:00,"{'StadiumID': 54, 'Name': 'SoFi Stadium', 'City': 'Inglewood', 'State': 'CA', 'Country': 'USA', 'Capacity': 70240, 'PlayingSurface': 'Artificial', 'GeoLat': 33.95345, 'GeoLong': -118.3392, 'Type': 'Dome'}"
202411229,1,2024,12,2024-11-25T20:15:00,BAL,LAC,ESPN,0.4,51.0,54.0,False,,,58.0,61.0,Clear Sky,58.0,5,-61.0,51.0,2024-11-25T00:00:00,2024-11-25T20:15:00,18835,3,29,18835,Final,,2024-11-26T01:15:00,"{'StadiumID': 54, 'Name': 'SoFi Stadium', 'City': 'Inglewood', 'State': 'CA', 'Country': 'USA', 'Capacity': 70240, 'PlayingSurface': 'Artificial', 'GeoLat': 33.95345, 'GeoLong': -118.3392, 'Type': 'Dome'}"
202411311,1,2024,13,2024-11-28T12:30:00,CHI,DET,CBS,-3.6,47.5,21.0,False,,,31.0,34.0,Overcast Clouds,27.0,8,148.0,-194.0,2024-11-28T00:00:00,2024-11-28T12:30:00,18863,6,11,18863,Final,,2024-11-28T17:30:00,"{'StadiumID': 21, 'Name': 'Ford Field', 'City': 'Detroit', 'State': 'MI', 'Country': 'USA', 'Capacity': 65000, 'PlayingSurface': 'Artificial', 'GeoLat': 42.340021, 'GeoLong': -83.045556, 'Type': 'Dome'}"
202411309,1,2024,13,2024-11-28T16:30:00,NYG,DAL,FOX,-1.5,38.5,17.0,False,,,44.0,44.0,Scattered Clouds,38.0,11,70.0,-83.0,2024-11-28T00:00:00,2024-11-28T16:30:00,18862,23,9,18862,Final,,2024-11-28T21:30:00,"{'StadiumID': 17, 'Name': 'AT&T Stadium', 'City': 'Arlington', 'State': 'TX', 'Country': 'USA', 'Capacity': 80000, 'PlayingSurface': 'Artificial', 'GeoLat': 32.747778, 'GeoLong': -97.092778, 'Type': 'RetractableDome'}"
202411312,1,2024,13,2024-11-28T20:20:00,MIA,GB,NBC,-1.3,47.5,22.0,False,,,24.0,25.0,Overcast Clouds,11.0,16,59.0,-69.0,2024-11-28T00:00:00,2024-11-28T20:20:00,18861,19,12,18861,Final,,2024-11-29T01:20:00,"{'StadiumID': 22, 'Name': 'Lambeau Field', 'City': 'Green Bay', 'State': 'WI', 'Country': 'USA', 'Capacity': 81441, 'PlayingSurface': 'Grass', 'GeoLat': 44.501389, 'GeoLong': -88.062222, 'Type': 'Outdoor'}"
202411316,1,2024,13,2024-11-29T15:00:00,LV,KC,AMZN,-5.1,42.5,15.0,False,,,29.0,30.0,Clear Sky,23.0,5,219.0,-314.0,2024-11-29T00:00:00,2024-11-29T15:00:00,18860,25,16,18860,Final,,2024-11-29T20:00:00,"{'StadiumID': 15, 'Name': 'Arrowhead Stadium', 'City': 'Kansas City', 'State': 'MO', 'Country': 'USA', 'Capacity': 76416, 'PlayingSurface': 'Grass', 'GeoLat': 39.048889, 'GeoLong': -94.483889, 'Type': 'Outdoor'}"
202411302,1,2024,13,2024-12-01T13:00:00,LAC,ATL,CBS,0.1,47.0,45.0,False,,,37.0,41.0,Clear Sky,32.0,8,-42.0,-42.0,2024-12-01T00:00:00,2024-12-01T13:00:00,18853,29,2,18853,Final,,2024-12-01T18:00:00,"{'StadiumID': 45, 'Name': 'Mercedes-Benz Stadium', 'City': 'Atlanta', 'State': 'GA', 'Country': 'USA', 'Capacity': 71000, 'PlayingSurface': 'Artificial', 'GeoLat': 33.755556, 'GeoLong': -84.401, 'Type': 'RetractableDome'}"
202411307,1,2024,13,2024-12-01T13:00:00,PIT,CIN,CBS,-1.1,46.0,5.0,False,,,23.0,25.0,Clear Sky,17.0,5,54.0,-63.0,2024-12-01T00:00:00,2024-12-01T13:00:00,18854,28,7,18854,Final,,2024-12-01T18:00:00,"{'StadiumID': 5, 'Name': 'Paycor Stadium', 'City': 'Cincinnati', 'State': 'OH', 'Country': 'USA', 'Capacity': 65515, 'PlayingSurface': 'Artificial', 'GeoLat': 39.095309, 'GeoLong': -84.516003, 'Type': 'Outdoor'}"
202411315,1,2024,13,2024-12-01T13:00:00,HOU,JAX,FOX,0.4,45.0,10.0,False,,,45.0,47.0,Clear Sky,43.0,4,-67.0,56.0,2024-12-01T00:00:00,2024-12-01T13:00:00,18855,13,15,18855,Final,,2024-12-01T18:00:00,"{'StadiumID': 10, 'Name': 'EverBank Stadium', 'City': 'Jacksonville', 'State': 'FL', 'Country': 'USA', 'Capacity': 67814, 'PlayingSurface': 'Grass', 'GeoLat': 30.323889, 'GeoLong': -81.6375, 'Type': 'Outdoor'}"
202411320,1,2024,13,2024-12-01T13:00:00,ARI,MIN,FOX,-1.3,45.5,42.0,False,,,15.0,21.0,Overcast Clouds,7.0,5,59.0,-69.0,2024-12-01T00:00:00,2024-12-01T13:00:00,18856,1,20,18856,Final,,2024-12-01T18:00:00,"{'StadiumID': 42, 'Name': 'U.S. Bank Stadium', 'City': 'Minneapolis', 'State': 'MN', 'Country': 'USA', 'Capacity': 66655, 'PlayingSurface': 'Artificial', 'GeoLat': 44.974288, 'GeoLong': -93.258, 'Type': 'Dome'}"
202411321,1,2024,13,2024-12-01T13:00:00,IND,NE,CBS,0.4,41.0,4.0,False,,,25.0,27.0,Clear Sky,18.0,5,-51.0,43.0,2024-12-01T00:00:00,2024-12-01T13:00:00,18857,14,21,18857,Final,,2024-12-01T18:00:00,"{'StadiumID': 4, 'Name': 'Gillette Stadium', 'City': 'Foxborough', 'State': 'MA', 'Country': 'USA', 'Capacity': 64628, 'PlayingSurface': 'Artificial', 'GeoLat': 42.090866, 'GeoLong': -71.264244, 'Type': 'Outdoor'}"
202411324,1,2024,13,2024-12-01T13:00:00,SEA,NYJ,FOX,-0.6,42.0,3.0,False,,,30.0,32.0,Clear Sky,25.0,6,40.0,-47.0,2024-12-01T00:00:00,2024-12-01T13:00:00,18858,30,24,18858,Final,,2024-12-01T18:00:00,"{'StadiumID': 3, 'Name': 'MetLife Stadium', 'City': 'East Rutherford', 'State': 'NJ', 'Country': 'USA', 'Capacity': 82500, 'PlayingSurface': 'Artificial', 'GeoLat': 40.813528, 'GeoLong': -74.074361, 'Type': 'Outdoor'}"
202411335,1,2024,13,2024-12-01T13:00:00,TEN,WAS,CBS,-2.3,45.5,19.0,False,,,28.0,30.0,Clear Sky,24.0,6,80.0,-97.0,2024-12-01T00:00:00,2024-12-01T13:00:00,18859,34,35,18859,Final,,2024-12-01T18:00:00,"{'StadiumID': 19, 'Name': 'Northwest Stadium', 'City': 'Landover', 'State': 'MD', 'Country': 'USA', 'Capacity': 62000, 'PlayingSurface': 'Grass', 'GeoLat': 38.907778, 'GeoLong': -76.864444, 'Type': 'Outdoor'}"
202411305,1,2024,13,2024-12-01T16:05:00,TB,CAR,FOX,0.9,46.0,26.0,False,,,36.0,38.0,Few Clouds,34.0,5,-115.0,94.0,2024-12-01T00:00:00,2024-12-01T16:05:00,18851,33,5,18851,F/OT,,2024-12-01T21:05:00,"{'StadiumID': 26, 'Name': 'Bank of America Stadium', 'City': 'Charlotte', 'State': 'NC', 'Country': 'USA', 'Capacity': 74867, 'PlayingSurface': 'Artificial', 'GeoLat': 35.225833, 'GeoLong': -80.852778, 'Type': 'Outdoor'}"
202411322,1,2024,13,2024-12-01T16:05:00,LAR,NO,FOX,0.4,48.5,27.0,False,,,52.0,55.0,Clear Sky,55.0,8,-57.0,48.0,2024-12-01T00:00:00,2024-12-01T16:05:00,18852,32,22,18852,Final,,2024-12-01T21:05:00,"{'StadiumID': 27, 'Name': 'Caesars Superdome', 'City': 'New Orleans', 'State': 'LA', 'Country': 'USA', 'Capacity': 73208, 'PlayingSurface': 'Artificial', 'GeoLat': 29.950833, 'GeoLong': -90.081111, 'Type': 'Dome'}"
202411303,1,2024,13,2024-12-01T16:25:00,PHI,BAL,CBS,-1.1,50.0,7.0,False,,,30.0,31.0,Few Clouds,22.0,9,53.0,-62.0,2024-12-01T00:00:00,2024-12-01T16:25:00,18850,26,3,18850,Final,,2024-12-01T21:25:00,"{'StadiumID': 7, 'Name': 'M&T Bank Stadium', 'City': 'Baltimore', 'State': 'MD', 'Country': 'USA', 'Capacity': 71008, 'PlayingSurface': 'Grass', 'GeoLat': 39.278056, 'GeoLong': -76.622778, 'Type': 'Outdoor'}"
202411304,1,2024,13,2024-12-01T20:20:00,SF,BUF,NBC,-2.5,45.5,1.0,False,,,23.0,26.0,Light Snow,22.0,4,96.0,-117.0,2024-12-01T00:00:00,2024-12-01T20:20:00,18849,31,4,18849,Final,,2024-12-02T01:20:00,"{'StadiumID': 1, 'Name': 'Highmark Stadium', 'City': 'Orchard Park', 'State': 'NY', 'Country': 'USA', 'Capacity': 71608, 'PlayingSurface': 'Artificial', 'GeoLat': 42.773758, 'GeoLong': -78.786837, 'Type': 'Outdoor'}"
202411310,1,2024,13,2024-12-02T20:15:00,CLE,DEN,ESPN,-2.5,41.5,13.0,False,,,38.0,42.0,Clear Sky,36.0,4,83.0,-102.0,2024-12-02T00:00:00,2024-12-02T20:15:00,18848,8,10,18848,Final,,2024-12-03T01:15:00,"{'StadiumID': 13, 'Name': 'Empower Field at Mile High', 'City': 'Denver', 'State': 'CO', 'Country': 'USA', 'Capacity': 76125, 'PlayingSurface': 'Grass', 'GeoLat': 39.743889, 'GeoLong': -105.020097, 'Type': 'Outdoor'}"
,1,2024,14,,BYE,BAL,,,,,,,,,,,,1,,,,,0,0,3,0,,,,
,1,2024,14,,BYE,DEN,,,,,,,,,,,,1,,,,,0,0,10,0,,,,
,1,2024,14,,BYE,HOU,,,,,,,,,,,,1,,,,,0,0,13,0,,,,
,1,2024,14,,BYE,IND,,,,,,,,,,,,1,,,,,0,0,14,0,,,,
,1,2024,14,,BYE,NE,,,,,,,,,,,,1,,,,,0,0,21,0,,,,
,1,2024,14,,BYE,WAS,,,,,,,,,,,,1,,,,,0,0,35,0,,,,
202411411,1,2024,14,2024-12-05T20:15:00,GB,DET,AMZN,-1.1,53.0,21.0,False,,,24.0,24.0,Clear Sky,16.0,7,55.0,-65.0,2024-12-05T00:00:00,2024-12-05T20:15:00,18876,12,11,18876,Final,,2024-12-06T01:15:00,"{'StadiumID': 21, 'Name': 'Ford Field', 'City': 'Detroit', 'State': 'MI', 'Country': 'USA', 'Capacity': 65000, 'PlayingSurface': 'Artificial', 'GeoLat': 42.340021, 'GeoLong': -83.045556, 'Type': 'Dome'}"
202411419,1,2024,14,2024-12-08T13:00:00,NYJ,MIA,CBS,-2.5,45.5,2.0,False,,,70.0,72.0,Clear Sky,70.0,12,92.0,-112.0,2024-12-08T00:00:00,2024-12-08T13:00:00,18869,24,19,18869,F/OT,,2024-12-08T18:00:00,"{'StadiumID': 2, 'Name': 'Hard Rock Stadium', 'City': 'Miami Gardens', 'State': 'FL', 'Country': 'USA', 'Capacity': 64767, 'PlayingSurface': 'Grass', 'GeoLat': 25.958056, 'GeoLong': -80.238889, 'Type': 'Outdoor'}"
202411420,1,2024,14,2024-12-08T13:00:00,ATL,MIN,FOX,-2.3,46.5,42.0,False,,,33.0,35.0,Clear Sky,29.0,7,82.0,-98.0,2024-12-08T00:00:00,2024-12-08T13:00:00,18870,2,20,18870,Final,,2024-12-08T18:00:00,"{'StadiumID': 42, 'Name': 'U.S. Bank Stadium', 'City': 'Minneapolis', 'State': 'MN', 'Country': 'USA', 'Capacity': 66655, 'PlayingSurface': 'Artificial', 'GeoLat': 44.974288, 'GeoLong': -93.258, 'Type': 'Dome'}"
202411423,1,2024,14,2024-12-08T13:00:00,NO,NYG,FOX,0.8,41.0,3.0,False,,,40.0,41.0,Clear Sky,40.0,2,-95.0,80.0,2024-12-08T00:00:00,2024-12-08T13:00:00,18871,22,23,18871,Final,,2024-12-08T18:00:00,"{'StadiumID': 3, 'Name': 'MetLife Stadium', 'City': 'East Rutherford', 'State': 'NJ', 'Country': 'USA', 'Capacity': 82500, 'PlayingSurface': 'Artificial', 'GeoLat': 40.813528, 'GeoLong': -74.074361, 'Type': 'Outdoor'}"
202411426,1,2024,14,2024-12-08T13:00:00,CAR,PHI,FOX,-5.3,44.5,18.0,False,,,40.0,43.0,Clear Sky,40.0,1,247.0,-371.0,2024-12-08T00:00:00,2024-12-08T13:00:00,18872,5,26,18872,Final,,2024-12-08T18:00:00,"{'StadiumID': 18, 'Name': 'Lincoln Financial Field', 'City': 'Philadelphia', 'State': 'PA', 'Country': 'USA', 'Capacity': 67594, 'PlayingSurface': 'Grass', 'GeoLat': 39.900833, 'GeoLong': -75.167469, 'Type': 'Outdoor'}"
202411428,1,2024,14,2024-12-08T13:00:00,CLE,PIT,CBS,-2.3,42.5,8.0,False,,,40.0,41.0,Scattered Clouds,38.0,5,87.0,-105.0,2024-12-08T00:00:00,2024-12-08T13:00:00,18873,8,28,18873,Final,,2024-12-08T18:00:00,"{'StadiumID': 8, 'Name': 'Acrisure Stadium', 'City': 'Pittsburgh', 'State': 'PA', 'Country': 'USA', 'Capacity': 68400, 'PlayingSurface': 'Grass', 'GeoLat': 40.446667, 'GeoLong': -80.015833, 'Type': 'Outdoor'}"
202411433,1,2024,14,2024-12-08T13:00:00,LV,TB,CBS,-2.5,47.0,24.0,False,,,59.0,62.0,Clear Sky,59.0,7,97.0,-119.0,2024-12-08T00:00:00,2024-12-08T13:00:00,18874,25,33,18874,Final,,2024-12-08T18:00:00,"{'StadiumID': 24, 'Name': 'Raymond James Stadium', 'City': 'Tampa Bay', 'State': 'FL', 'Country': 'USA', 'Capacity': 69218, 'PlayingSurface': 'Grass', 'GeoLat': 27.975833, 'GeoLong': -82.503333, 'Type': 'Outdoor'}"
202411434,1,2024,14,2024-12-08T13:00:00,JAX,TEN,CBS,-1.1,40.5,12.0,False,,,50.0,51.0,Heavy Intensity Rain,50.0,11,54.0,-64.0,2024-12-08T00:00:00,2024-12-08T13:00:00,18875,15,34,18875,Final,,2024-12-08T18:00:00,"{'StadiumID': 12, 'Name': 'Nissan Stadium', 'City': 'Nashville', 'State': 'TN', 'Country': 'USA', 'Capacity': 69143, 'PlayingSurface': 'Grass', 'GeoLat': 36.166389, 'GeoLong': -86.771389, 'Type': 'Outdoor'}"
202411401,1,2024,14,2024-12-08T16:05:00,SEA,ARI,CBS,-1.1,45.5,29.0,False,,,57.0,63.0,Clear Sky,57.0,1,56.0,-66.0,2024-12-08T00:00:00,2024-12-08T16:05:00,18868,30,1,18868,Final,,2024-12-08T21:05:00,"{'StadiumID': 29, 'Name': 'State Farm Stadium', 'City': 'Glendale', 'State': 'AZ', 'Country': 'USA', 'Capacity': 63400, 'PlayingSurface': 'Grass', 'GeoLat': 33.528, 'GeoLong': -112.263036, 'Type': 'RetractableDome'}"
202411432,1,2024,14,2024-12-08T16:25:00,BUF,LAR,FOX,0.5,50.0,54.0,False,,,56.0,58.0,Broken Clouds,56.0,2,-71.0,60.0,2024-12-08T00:00:00,2024-12-08T16:25:00,18866,4,32,18866,Final,,2024-12-08T21:25:00,"{'StadiumID': 54, 'Name': 'SoFi Stadium', 'City': 'Inglewood', 'State': 'CA', 'Country': 'USA', 'Capacity': 70240, 'PlayingSurface': 'Artificial', 'GeoLat': 33.95345, 'GeoLong': -118.3392, 'Type': 'Dome'}"
202411431,1,2024,14,2024-12-08T16:25:00,CHI,SF,FOX,-1.1,43.5,37.0,False,,,52.0,56.0,Clear Sky,52.0,0,54.0,-64.0,2024-12-08T00:00:00,2024-12-08T16:25:00,18867,6,31,18867,Final,,2024-12-08T21:25:00,"{'StadiumID': 37, 'Name': ""Levi's Stadium"", 'City': 'Santa Clara', 'State': 'CA', 'Country': 'USA', 'Capacity': 68500, 'PlayingSurface': 'Grass', 'GeoLat': 37.403, 'GeoLong': -121.970274, 'Type': 'Outdoor'}"
202411416,1,2024,14,2024-12-08T20:20:00,LAC,KC,NBC,-1.7,43.0,15.0,False,,,46.0,48.0,Overcast Clouds,43.0,10,74.0,-88.0,2024-12-08T00:00:00,2024-12-08T20:20:00,18865,29,16,18865,Final,,2024-12-09T01:20:00,"{'StadiumID': 15, 'Name': 'Arrowhead Stadium', 'City': 'Kansas City', 'State': 'MO', 'Country': 'USA', 'Capacity': 76416, 'PlayingSurface': 'Grass', 'GeoLat': 39.048889, 'GeoLong': -94.483889, 'Type': 'Outdoor'}"
202411409,1,2024,14,2024-12-09T20:15:00,CIN,DAL,ESPN,0.7,50.5,17.0,False,,,51.0,53.0,Clear Sky,51.0,11,-87.0,71.0,2024-12-09T00:00:00,2024-12-09T20:15:00,18864,7,9,18864,Final,,2024-12-10T01:15:00,"{'StadiumID': 17, 'Name': 'AT&T Stadium', 'City': 'Arlington', 'State': 'TX', 'Country': 'USA', 'Capacity': 80000, 'PlayingSurface': 'Artificial', 'GeoLat': 32.747778, 'GeoLong': -97.092778, 'Type': 'RetractableDome'}"
202411531,1,2024,15,2024-12-12T20:15:00,LAR,SF,AMZN,-1.1,48.5,37.0,False,,,52.0,54.0,Light Rain,52.0,3,50.0,-59.0,2024-12-12T00:00:00,2024-12-12T20:15:00,18892,32,31,18892,Final,,2024-12-13T01:15:00,"{'StadiumID': 37, 'Name': ""Levi's Stadium"", 'City': 'Santa Clara', 'State': 'CA', 'Country': 'USA', 'Capacity': 68500, 'PlayingSurface': 'Grass', 'GeoLat': 37.403, 'GeoLong': -121.970274, 'Type': 'Outdoor'}"
202411505,1,2024,15,2024-12-15T13:00:00,DAL,CAR,FOX,-1.0,42.0,26.0,False,,,39.0,43.0,Light Rain,36.0,5,46.0,-54.0,2024-12-15T00:00:00,2024-12-15T13:00:00,18885,9,5,18885,Final,,2024-12-15T18:00:00,"{'StadiumID': 26, 'Name': 'Bank of America Stadium', 'City': 'Charlotte', 'State': 'NC', 'Country': 'USA', 'Capacity': 74867, 'PlayingSurface': 'Artificial', 'GeoLat': 35.225833, 'GeoLong': -80.852778, 'Type': 'Outdoor'}"
202411508,1,2024,15,2024-12-15T13:00:00,KC,CLE,CBS,0.6,41.0,6.0,False,,,41.0,44.0,Overcast Clouds,39.0,9,-86.0,72.0,2024-12-15T00:00:00,2024-12-15T13:00:00,18886,16,8,18886,Final,,2024-12-15T18:00:00,"{'StadiumID': 6, 'Name': 'Huntington Bank Field', 'City': 'Cleveland', 'State': 'OH', 'Country': 'USA', 'Capacity': 67431, 'PlayingSurface': 'Grass', 'GeoLat': 41.506111, 'GeoLong': -81.699444, 'Type': 'Outdoor'}"
202411513,1,2024,15,2024-12-15T13:00:00,MIA,HOU,CBS,-1.0,46.5,11.0,False,,,69.0,69.0,Overcast Clouds,69.0,8,49.0,-58.0,2024-12-15T00:00:00,2024-12-15T13:00:00,18887,19,13,18887,Final,,2024-12-15T18:00:00,"{'StadiumID': 11, 'Name': 'NRG Stadium', 'City': 'Houston', 'State': 'TX', 'Country': 'USA', 'Capacity': 72220, 'PlayingSurface': 'Artificial', 'GeoLat': 29.684722, 'GeoLong': -95.410833, 'Type': 'RetractableDome'}"
202411515,1,2024,15,2024-12-15T13:00:00,NYJ,JAX,FOX,0.5,41.5,10.0,False,,,59.0,60.0,Overcast Clouds,59.0,5,-68.0,58.0,2024-12-15T00:00:00,2024-12-15T13:00:00,18888,24,15,18888,Final,,2024-12-15T18:00:00,"{'StadiumID': 10, 'Name': 'EverBank Stadium', 'City': 'Jacksonville', 'State': 'FL', 'Country': 'USA', 'Capacity': 67814, 'PlayingSurface': 'Grass', 'GeoLat': 30.323889, 'GeoLong': -81.6375, 'Type': 'Outdoor'}"
202411522,1,2024,15,2024-12-15T13:00:00,WAS,NO,FOX,1.1,44.5,27.0,False,,,65.0,65.0,Overcast Clouds,65.0,6,-142.0,114.0,2024-12-15T00:00:00,2024-12-15T13:00:00,18889,35,22,18889,Final,,2024-12-15T18:00:00,"{'StadiumID': 27, 'Name': 'Caesars Superdome', 'City': 'New Orleans', 'State': 'LA', 'Country': 'USA', 'Capacity': 73208, 'PlayingSurface': 'Artificial', 'GeoLat': 29.950833, 'GeoLong': -90.081111, 'Type': 'Dome'}"
202411523,1,2024,15,2024-12-15T13:00:00,BAL,NYG,CBS,2.4,43.5,3.0,False,,,37.0,40.0,Light Rain,33.0,5,-632.0,359.0,2024-12-15T00:00:00,2024-12-15T13:00:00,18890,3,23,18890,Final,,2024-12-15T18:00:00,"{'StadiumID': 3, 'Name': 'MetLife Stadium', 'City': 'East Rutherford', 'State': 'NJ', 'Country': 'USA', 'Capacity': 82500, 'PlayingSurface': 'Artificial', 'GeoLat': 40.813528, 'GeoLong': -74.074361, 'Type': 'Outdoor'}"
202411534,1,2024,15,2024-12-15T13:00:00,CIN,TEN,FOX,0.9,46.0,12.0,False,,,53.0,54.0,Light Rain,54.0,8,-97.0,82.0,2024-12-15T00:00:00,2024-12-15T13:00:00,18891,7,34,18891,Final,,2024-12-15T18:00:00,"{'StadiumID': 12, 'Name': 'Nissan Stadium', 'City': 'Nashville', 'State': 'TN', 'Country': 'USA', 'Capacity': 69143, 'PlayingSurface': 'Grass', 'GeoLat': 36.166389, 'GeoLong': -86.771389, 'Type': 'Outdoor'}"
202411501,1,2024,15,2024-12-15T16:25:00,NE,ARI,CBS,-2.3,46.5,29.0,False,,,54.0,60.0,Clear Sky,54.0,1,86.0,-104.0,2024-12-15T00:00:00,2024-12-15T16:25:00,18880,21,1,18880,Final,,2024-12-15T21:25:00,"{'StadiumID': 29, 'Name': 'State Farm Stadium', 'City': 'Glendale', 'State': 'AZ', 'Country': 'USA', 'Capacity': 63400, 'PlayingSurface': 'Grass', 'GeoLat': 33.528, 'GeoLong': -112.263036, 'Type': 'RetractableDome'}"
202411510,1,2024,15,2024-12-15T16:25:00,IND,DEN,CBS,-1.7,43.5,13.0,False,,,39.0,41.0,Few Clouds,38.0,5,70.0,-83.0,2024-12-15T00:00:00,2024-12-15T16:25:00,18881,14,10,18881,Final,,2024-12-15T21:25:00,"{'StadiumID': 13, 'Name': 'Empower Field at Mile High', 'City': 'Denver', 'State': 'CO', 'Country': 'USA', 'Capacity': 76125, 'PlayingSurface': 'Grass', 'GeoLat': 39.743889, 'GeoLong': -105.020097, 'Type': 'Outdoor'}"
202411511,1,2024,15,2024-12-15T16:25:00,BUF,DET,CBS,-1.0,55.5,21.0,False,,,37.0,41.0,Overcast Clouds,38.0,4,45.0,-53.0,2024-12-15T00:00:00,2024-12-15T16:25:00,18882,4,11,18882,Final,,2024-12-15T21:25:00,"{'StadiumID': 21, 'Name': 'Ford Field', 'City': 'Detroit', 'State': 'MI', 'Country': 'USA', 'Capacity': 65000, 'PlayingSurface': 'Artificial', 'GeoLat': 42.340021, 'GeoLong': -83.045556, 'Type': 'Dome'}"
202411529,1,2024,15,2024-12-15T16:25:00,TB,LAC,FOX,-1.1,46.0,54.0,False,,,54.0,58.0,Clear Sky,54.0,3,53.0,-62.0,2024-12-15T00:00:00,2024-12-15T16:25:00,18883,33,29,18883,Final,,2024-12-15T21:25:00,"{'StadiumID': 54, 'Name': 'SoFi Stadium', 'City': 'Inglewood', 'State': 'CA', 'Country': 'USA', 'Capacity': 70240, 'PlayingSurface': 'Artificial', 'GeoLat': 33.95345, 'GeoLong': -118.3392, 'Type': 'Dome'}"
202411526,1,2024,15,2024-12-15T16:25:00,PIT,PHI,FOX,-2.1,43.0,18.0,False,,,37.0,40.0,Light Rain,35.0,3,79.0,-94.0,2024-12-15T00:00:00,2024-12-15T16:25:00,18884,28,26,18884,Final,,2024-12-15T21:25:00,"{'StadiumID': 18, 'Name': 'Lincoln Financial Field', 'City': 'Philadelphia', 'State': 'PA', 'Country': 'USA', 'Capacity': 67594, 'PlayingSurface': 'Grass', 'GeoLat': 39.900833, 'GeoLong': -75.167469, 'Type': 'Outdoor'}"
202411530,1,2024,15,2024-12-15T20:20:00,GB,SEA,NBC,0.4,48.0,31.0,False,,,40.0,42.0,Overcast Clouds,42.0,2,-61.0,52.0,2024-12-15T00:00:00,2024-12-15T20:20:00,18879,12,30,18879,Final,,2024-12-16T01:20:00,"{'StadiumID': 31, 'Name': 'Lumen Field', 'City': 'Seattle', 'State': 'WA', 'Country': 'USA', 'Capacity': 68740, 'PlayingSurface': 'Artificial', 'GeoLat': 47.5952, 'GeoLong': -122.331625, 'Type': 'Outdoor'}"
202411520,1,2024,15,2024-12-16T20:00:00,CHI,MIN,ABC,-2.7,43.5,42.0,False,,,26.0,29.0,Overcast Clouds,20.0,11,102.0,-125.0,2024-12-16T00:00:00,2024-12-16T20:00:00,18878,6,20,18878,Final,,2024-12-17T01:00:00,"{'StadiumID': 42, 'Name': 'U.S. Bank Stadium', 'City': 'Minneapolis', 'State': 'MN', 'Country': 'USA', 'Capacity': 66655, 'PlayingSurface': 'Artificial', 'GeoLat': 44.974288, 'GeoLong': -93.258, 'Type': 'Dome'}"
202411525,1,2024,15,2024-12-16T20:30:00,ATL,LV,ESPN,0.9,44.5,53.0,False,,,43.0,46.0,Clear Sky,45.0,3,-110.0,91.0,2024-12-16T00:00:00,2024-12-16T20:30:00,18877,2,25,18877,Final,,2024-12-17T01:30:00,"{'StadiumID': 53, 'Name': 'Allegiant Stadium', 'City': 'Las Vegas', 'State': 'NV', 'Country': 'USA', 'Capacity': 65000, 'PlayingSurface': 'Grass', 'GeoLat': 36.090833, 'GeoLong': -115.183611, 'Type': 'Dome'}"
202411629,1,2024,16,2024-12-19T20:15:00,DEN,LAC,AMZN,-1.1,41.5,54.0,False,,,62.0,62.0,Scattered Clouds,62.0,2,50.0,-59.0,2024-12-19T00:00:00,2024-12-19T20:15:00,18897,10,29,18897,Final,,2024-12-20T01:15:00,"{'StadiumID': 54, 'Name': 'SoFi Stadium', 'City': 'Inglewood', 'State': 'CA', 'Country': 'USA', 'Capacity': 70240, 'PlayingSurface': 'Artificial', 'GeoLat': 33.95345, 'GeoLong': -118.3392, 'Type': 'Dome'}"
202411616,1,2024,16,2024-12-21T13:00:00,HOU,KC,NBC,-1.1,42.5,15.0,False,,,26.0,27.0,Clear Sky,19.0,7,59.0,-70.0,2024-12-21T00:00:00,2024-12-21T13:00:00,18907,13,16,18907,Final,,2024-12-21T18:00:00,"{'StadiumID': 15, 'Name': 'Arrowhead Stadium', 'City': 'Kansas City', 'State': 'MO', 'Country': 'USA', 'Capacity': 76416, 'PlayingSurface': 'Grass', 'GeoLat': 39.048889, 'GeoLong': -94.483889, 'Type': 'Outdoor'}"
202411603,1,2024,16,2024-12-21T16:30:00,PIT,BAL,FOX,-2.7,44.0,7.0,False,,,25.0,26.0,Broken Clouds,16.0,12,106.0,-132.0,2024-12-21T00:00:00,2024-12-21T16:30:00,18906,28,3,18906,Final,,2024-12-21T21:30:00,"{'StadiumID': 7, 'Name': 'M&T Bank Stadium', 'City': 'Baltimore', 'State': 'MD', 'Country': 'USA', 'Capacity': 71008, 'PlayingSurface': 'Grass', 'GeoLat': 39.278056, 'GeoLong': -76.622778, 'Type': 'Outdoor'}"
202411602,1,2024,16,2024-12-22T13:00:00,NYG,ATL,FOX,-3.6,43.0,45.0,False,,,34.0,37.0,Clear Sky,28.0,6,144.0,-187.0,2024-12-22T00:00:00,2024-12-22T13:00:00,18899,23,2,18899,Final,,2024-12-22T18:00:00,"{'StadiumID': 45, 'Name': 'Mercedes-Benz Stadium', 'City': 'Atlanta', 'State': 'GA', 'Country': 'USA', 'Capacity': 71000, 'PlayingSurface': 'Artificial', 'GeoLat': 33.755556, 'GeoLong': -84.401, 'Type': 'RetractableDome'}"
202411605,1,2024,16,2024-12-22T13:00:00,ARI,CAR,FOX,0.8,47.0,26.0,False,,,28.0,31.0,Clear Sky,23.0,4,-97.0,81.0,2024-12-22T00:00:00,2024-12-22T13:00:00,18901,1,5,18901,F/OT,,2024-12-22T18:00:00,"{'StadiumID': 26, 'Name': 'Bank of America Stadium', 'City': 'Charlotte', 'State': 'NC', 'Country': 'USA', 'Capacity': 74867, 'PlayingSurface': 'Artificial', 'GeoLat': 35.225833, 'GeoLong': -80.852778, 'Type': 'Outdoor'}"
202411606,1,2024,16,2024-12-22T13:00:00,DET,CHI,FOX,0.9,47.5,20.0,False,,,32.0,33.0,Overcast Clouds,23.0,15,-125.0,102.0,2024-12-22T00:00:00,2024-12-22T13:00:00,18902,11,6,18902,Final,,2024-12-22T18:00:00,"{'StadiumID': 20, 'Name': 'Soldier Field', 'City': 'Chicago', 'State': 'IL', 'Country': 'USA', 'Capacity': 61500, 'PlayingSurface': 'Grass', 'GeoLat': 41.86232, 'GeoLong': -87.616699, 'Type': 'Outdoor'}"
202411607,1,2024,16,2024-12-22T13:00:00,CLE,CIN,CBS,-3.8,46.0,5.0,False,,,27.0,28.0,Clear Sky,22.0,5,154.0,-205.0,2024-12-22T00:00:00,2024-12-22T13:00:00,18908,8,7,18908,Final,,2024-12-22T18:00:00,"{'StadiumID': 5, 'Name': 'Paycor Stadium', 'City': 'Cincinnati', 'State': 'OH', 'Country': 'USA', 'Capacity': 65515, 'PlayingSurface': 'Artificial', 'GeoLat': 39.095309, 'GeoLong': -84.516003, 'Type': 'Outdoor'}"
202411614,1,2024,16,2024-12-22T13:00:00,TEN,IND,CBS,-1.5,42.5,9.0,False,,,28.0,29.0,Scattered Clouds,21.0,9,66.0,-78.0,2024-12-22T00:00:00,2024-12-22T13:00:00,18903,34,14,18903,Final,,2024-12-22T18:00:00,"{'StadiumID': 9, 'Name': 'Lucas Oil Stadium', 'City': 'Indianapolis', 'State': 'IN', 'Country': 'USA', 'Capacity': 67000, 'PlayingSurface': 'Artificial', 'GeoLat': 39.760056, 'GeoLong': -86.163806, 'Type': 'RetractableDome'}"
202411624,1,2024,16,2024-12-22T13:00:00,LAR,NYJ,CBS,0.4,47.0,3.0,False,,,13.0,19.0,Clear Sky,5.0,5,-61.0,52.0,2024-12-22T00:00:00,2024-12-22T13:00:00,18904,32,24,18904,Final,,2024-12-22T18:00:00,"{'StadiumID': 3, 'Name': 'MetLife Stadium', 'City': 'East Rutherford', 'State': 'NJ', 'Country': 'USA', 'Capacity': 82500, 'PlayingSurface': 'Artificial', 'GeoLat': 40.813528, 'GeoLong': -74.074361, 'Type': 'Outdoor'}"
202411635,1,2024,16,2024-12-22T13:00:00,PHI,WAS,FOX,0.6,47.0,19.0,False,,,21.0,23.0,Clear Sky,21.0,3,-83.0,69.0,2024-12-22T00:00:00,2024-12-22T13:00:00,18905,26,35,18905,Final,,2024-12-22T18:00:00,"{'StadiumID': 19, 'Name': 'Northwest Stadium', 'City': 'Landover', 'State': 'MD', 'Country': 'USA', 'Capacity': 62000, 'PlayingSurface': 'Grass', 'GeoLat': 38.907778, 'GeoLong': -76.864444, 'Type': 'Outdoor'}"
202411630,1,2024,16,2024-12-22T16:05:00,MIN,SEA,FOX,0.4,43.0,31.0,False,,,46.0,49.0,Light Rain,46.0,8,-53.0,45.0,2024-12-22T00:00:00,2024-12-22T16:05:00,18898,20,30,18898,Final,,2024-12-22T21:05:00,"{'StadiumID': 31, 'Name': 'Lumen Field', 'City': 'Seattle', 'State': 'WA', 'Country': 'USA', 'Capacity': 68740, 'PlayingSurface': 'Artificial', 'GeoLat': 47.5952, 'GeoLong': -122.331625, 'Type': 'Outdoor'}"
202411604,1,2024,16,2024-12-22T16:25:00,NE,BUF,CBS,-5.3,48.0,1.0,False,,,8.0,9.0,Overcast Clouds,0.0,5,256.0,-379.0,2024-12-22T00:00:00,2024-12-22T16:25:00,18900,21,4,18900,Final,,2024-12-22T21:25:00,"{'StadiumID': 1, 'Name': 'Highmark Stadium', 'City': 'Orchard Park', 'State': 'NY', 'Country': 'USA', 'Capacity': 71608, 'PlayingSurface': 'Artificial', 'GeoLat': 42.773758, 'GeoLong': -78.786837, 'Type': 'Outdoor'}"
202411625,1,2024,16,2024-12-22T16:25:00,JAX,LV,CBS,-0.8,41.5,53.0,False,,,50.0,56.0,Scattered Clouds,56.0,1,43.0,-51.0,2024-12-22T00:00:00,2024-12-22T16:25:00,18895,15,25,18895,Final,,2024-12-22T21:25:00,"{'StadiumID': 53, 'Name': 'Allegiant Stadium', 'City': 'Las Vegas', 'State': 'NV', 'Country': 'USA', 'Capacity': 65000, 'PlayingSurface': 'Grass', 'GeoLat': 36.090833, 'GeoLong': -115.183611, 'Type': 'Dome'}"
